{"58273":{"name":"Lagstein Zev MD PC Facc","latitude":36.1585503,"longitude":-115.1816673,"stars":3.5,"review_count":3,"price_range":null},"58275":{"name":"Sun Auto Service","latitude":36.1802199143,"longitude":-115.258032643,"stars":4.0,"review_count":85,"price_range":null},"58285":{"name":"Rapha Healing Centers","latitude":36.2380917,"longitude":-115.2236578,"stars":3.5,"review_count":28,"price_range":"2"},"58286":{"name":"Canyon Ridge Christian Church","latitude":36.2473673,"longitude":-115.2271713,"stars":4.5,"review_count":53,"price_range":null},"58295":{"name":"American Builders","latitude":36.1519543,"longitude":-115.1623883,"stars":4.0,"review_count":5,"price_range":null},"58312":{"name":"Robert Drysdale Brazilian Jiu","latitude":36.1492751398,"longitude":-115.242409912,"stars":5.0,"review_count":23,"price_range":null},"58332":{"name":"Jackson Hewitt Tax Service","latitude":36.064516,"longitude":-115.248592,"stars":2.5,"review_count":3,"price_range":null},"58333":{"name":"Chili's","latitude":36.0627570925,"longitude":-115.252423123,"stars":2.5,"review_count":188,"price_range":"2"},"58345":{"name":"SGI-USA Buddhist Center","latitude":36.1586424,"longitude":-115.1785864,"stars":5.0,"review_count":16,"price_range":null},"58358":{"name":"Stunning Smiles of Las Vegas","latitude":36.0719739,"longitude":-115.2917932,"stars":5.0,"review_count":52,"price_range":null},"58359":{"name":"The Magic Noodle","latitude":36.0957104,"longitude":-115.2982167,"stars":4.5,"review_count":225,"price_range":"1"},"58372":{"name":"Hawaiian Food Online","latitude":36.1437297,"longitude":-115.2376269,"stars":3.0,"review_count":4,"price_range":null},"58382":{"name":"Froyo Time","latitude":36.115598,"longitude":-115.102678,"stars":3.5,"review_count":18,"price_range":"1"},"58404":{"name":"Life Storage","latitude":36.0558318,"longitude":-115.2350276,"stars":1.5,"review_count":15,"price_range":"3"},"58412":{"name":"Hottie's World","latitude":36.1634547,"longitude":-115.2893597,"stars":2.5,"review_count":28,"price_range":"2"},"58413":{"name":"Cantina Laredo","latitude":36.1667009,"longitude":-115.2870029,"stars":3.5,"review_count":387,"price_range":"2"},"58435":{"name":"Kids Time","latitude":36.0563840918,"longitude":-115.269561523,"stars":4.0,"review_count":42,"price_range":null},"58442":{"name":"Pueblo Medical Imaging","latitude":36.15928,"longitude":-115.177507,"stars":2.5,"review_count":7,"price_range":null},"58443":{"name":"Ryan Alexander Chtd","latitude":36.1584943,"longitude":-115.182755,"stars":5.0,"review_count":8,"price_range":null},"58445":{"name":"Weststar Loan Servicing","latitude":36.1461095,"longitude":-115.179556,"stars":1.0,"review_count":3,"price_range":null},"58456":{"name":"Papa Murphy's","latitude":36.2390814,"longitude":-115.2094336,"stars":3.0,"review_count":22,"price_range":"1"},"58457":{"name":"Expertise Weddings -Minister Ericka & Team","latitude":36.1697096,"longitude":-115.1236952,"stars":5.0,"review_count":5,"price_range":null},"58469":{"name":"Academy of Hair Design","latitude":36.1585144,"longitude":-115.2104754,"stars":4.0,"review_count":21,"price_range":null},"58471":{"name":"Leslie's Pool Supplies, Service & Repair","latitude":35.9977865,"longitude":-115.2055874,"stars":3.5,"review_count":3,"price_range":"3"},"58472":{"name":"Bogart's Bone Appetit","latitude":35.9977865,"longitude":-115.2055874,"stars":3.5,"review_count":88,"price_range":null},"58473":{"name":"Modern Wellness Clinic","latitude":36.156507,"longitude":-115.244491,"stars":4.0,"review_count":32,"price_range":"2"},"58481":{"name":"First Time Vape","latitude":36.0125437,"longitude":-115.1564086,"stars":5.0,"review_count":61,"price_range":"2"},"58490":{"name":"Life Storage","latitude":36.0544754,"longitude":-115.2526953,"stars":5.0,"review_count":4,"price_range":null},"58507":{"name":"Mi Ga","latitude":36.127269,"longitude":-115.241736,"stars":4.0,"review_count":39,"price_range":"2"},"58523":{"name":"Karaoke Q Studio","latitude":36.1273078,"longitude":-115.2243612,"stars":4.5,"review_count":495,"price_range":"2"},"58527":{"name":"Bonanza Lounge","latitude":36.1728156,"longitude":-115.0828792,"stars":4.0,"review_count":28,"price_range":"1"},"58557":{"name":"Suzohne West - SecurityNational Mortgage","latitude":36.1500213,"longitude":-115.3330428,"stars":5.0,"review_count":3,"price_range":null},"58559":{"name":"Good Life Auto Tint","latitude":36.098223,"longitude":-115.207675,"stars":5.0,"review_count":3,"price_range":null},"58564":{"name":"Privy Skin Care","latitude":36.2741999,"longitude":-115.2580594,"stars":5.0,"review_count":47,"price_range":"2"},"58574":{"name":"WIC Nevada Health Centers","latitude":36.1435894908,"longitude":-115.204118521,"stars":2.0,"review_count":3,"price_range":null},"58575":{"name":"FedEx Office Print & Ship Center","latitude":36.0062943,"longitude":-115.1166714,"stars":2.5,"review_count":46,"price_range":null},"58585":{"name":"Michael Jones, OD","latitude":36.1773745,"longitude":-115.2606684,"stars":4.0,"review_count":6,"price_range":null},"58588":{"name":"Heaven's Cookie & Creations","latitude":36.1284289,"longitude":-115.314551,"stars":4.0,"review_count":5,"price_range":"1"},"58606":{"name":"Grand Pizza","latitude":36.232623,"longitude":-115.2432671,"stars":4.0,"review_count":187,"price_range":"2"},"58611":{"name":"Sagebrush Ranch","latitude":36.288609,"longitude":-115.2377991,"stars":2.0,"review_count":17,"price_range":null},"58679":{"name":"Lilly's Thai & Vietnamese Restaurant","latitude":36.1298759,"longitude":-115.2755165,"stars":4.0,"review_count":97,"price_range":"1"},"58680":{"name":"Simple Vegas Weddings","latitude":36.1453333,"longitude":-115.2778317,"stars":5.0,"review_count":10,"price_range":null},"58692":{"name":"Las Vegas Swim Academy","latitude":36.1776562,"longitude":-115.2237334,"stars":5.0,"review_count":5,"price_range":null},"58693":{"name":"Desert Oasis Clinic","latitude":36.0738696,"longitude":-115.241759,"stars":5.0,"review_count":5,"price_range":null},"58696":{"name":"Pancho's Vegan Tacos","latitude":36.1007774746,"longitude":-115.101814503,"stars":4.5,"review_count":385,"price_range":"1"},"58697":{"name":"Acura of Las Vegas Service","latitude":36.1448266,"longitude":-115.2467493,"stars":3.5,"review_count":39,"price_range":null},"58698":{"name":"Farmers Insurance - Jay Fisher","latitude":36.157802957,"longitude":-115.26263237,"stars":5.0,"review_count":3,"price_range":null},"58699":{"name":"Five Star Tree Service","latitude":36.151273,"longitude":-115.058856,"stars":5.0,"review_count":5,"price_range":null},"58700":{"name":"Taco Bell","latitude":36.14356,"longitude":-115.26095,"stars":3.5,"review_count":15,"price_range":"1"},"58708":{"name":"Desert Sand Property Management","latitude":36.1581196,"longitude":-115.2453599,"stars":3.0,"review_count":4,"price_range":null},"58709":{"name":"Bath & Body Works","latitude":36.16134,"longitude":-115.288274,"stars":4.0,"review_count":30,"price_range":"2"},"58710":{"name":"Gary Gibson - State Farm Insurance Agent","latitude":36.1306701,"longitude":-115.2782941,"stars":3.0,"review_count":6,"price_range":null},"58712":{"name":"PoshBurger Bistro","latitude":36.1588941,"longitude":-115.3122252,"stars":3.0,"review_count":47,"price_range":"3"},"58713":{"name":"The Retina Center At Las Vegas","latitude":36.1586099,"longitude":-115.2451251,"stars":2.5,"review_count":4,"price_range":null},"58714":{"name":"Go Wild Sushi & Grill","latitude":36.1433538,"longitude":-115.2512854,"stars":3.5,"review_count":51,"price_range":"2"},"58715":{"name":"Children's Nephrology Clinic","latitude":36.142837,"longitude":-115.2510834,"stars":2.5,"review_count":3,"price_range":null},"58716":{"name":"Desert Rock Sports","latitude":36.158637,"longitude":-115.272148,"stars":4.0,"review_count":29,"price_range":"2"},"58721":{"name":"Winchester Park and Cultural Center","latitude":36.1326968,"longitude":-115.1085463,"stars":4.0,"review_count":10,"price_range":null},"58732":{"name":"Desert Nails","latitude":36.2073859,"longitude":-115.3026958,"stars":3.0,"review_count":20,"price_range":"2"},"58742":{"name":"Sensi","latitude":36.11199,"longitude":-115.177001,"stars":4.0,"review_count":384,"price_range":"3"},"58743":{"name":"KenjiVegas","latitude":36.1145329397,"longitude":-115.173173155,"stars":5.0,"review_count":4,"price_range":null},"58744":{"name":"Z Gallerie","latitude":36.127649812,"longitude":-115.171265602,"stars":3.0,"review_count":28,"price_range":"3"},"58746":{"name":"New Door Residential","latitude":36.1013078052,"longitude":-115.312439467,"stars":4.0,"review_count":5,"price_range":null},"58747":{"name":"A+ Tinters","latitude":36.1139072,"longitude":-115.2782308,"stars":5.0,"review_count":3,"price_range":null},"58749":{"name":"Fanda Travel","latitude":36.1148054,"longitude":-115.2778317,"stars":4.5,"review_count":13,"price_range":null},"58750":{"name":"Esports Arena","latitude":36.0953010778,"longitude":-115.175589117,"stars":4.5,"review_count":15,"price_range":null},"58752":{"name":"Advanced Piano Moving","latitude":36.069076,"longitude":-115.0988402,"stars":4.5,"review_count":17,"price_range":null},"58754":{"name":"Nail Tips","latitude":36.1588576,"longitude":-115.1242786,"stars":2.5,"review_count":17,"price_range":"2"},"58755":{"name":"702 Pros Web Design","latitude":36.1259599,"longitude":-115.1848457,"stars":5.0,"review_count":5,"price_range":null},"58756":{"name":"Busy Buggy","latitude":36.1272955,"longitude":-115.1929455,"stars":4.5,"review_count":234,"price_range":null},"58774":{"name":"Champs Sports","latitude":36.1485137,"longitude":-115.3328422,"stars":3.0,"review_count":4,"price_range":"3"},"58779":{"name":"Margaritaville Casino","latitude":36.1163474,"longitude":-115.1723373,"stars":4.0,"review_count":60,"price_range":"2"},"58781":{"name":"San Gennaro Burger","latitude":36.1226902,"longitude":-115.1701939,"stars":3.5,"review_count":23,"price_range":"2"},"58782":{"name":"Jerry Seinfeld","latitude":36.1161685,"longitude":-115.174499,"stars":4.0,"review_count":27,"price_range":null},"58784":{"name":"Jack Daniels Lounge - T-Mobile Arena","latitude":36.1036789438,"longitude":-115.178064219,"stars":5.0,"review_count":5,"price_range":"4"},"58799":{"name":"Wyandotte Apartments","latitude":36.1402420033,"longitude":-115.178043706,"stars":2.0,"review_count":14,"price_range":null},"58802":{"name":"U-Haul Moving & Storage at Nellis Blvd","latitude":36.1688741912,"longitude":-115.062520151,"stars":4.0,"review_count":5,"price_range":null},"58816":{"name":"Prescott Exterminating","latitude":36.3656399,"longitude":-115.2244853,"stars":5.0,"review_count":14,"price_range":null},"58885":{"name":"TNT Nails","latitude":36.1693404371,"longitude":-115.061645396,"stars":2.5,"review_count":18,"price_range":"2"},"58899":{"name":"Red Wing Shoes","latitude":36.1451859,"longitude":-115.1766297,"stars":4.0,"review_count":9,"price_range":"2"},"58904":{"name":"Suite 160","latitude":36.0912617,"longitude":-115.1742471,"stars":4.0,"review_count":14,"price_range":"2"},"58917":{"name":"Sushi Loca","latitude":36.1450494098,"longitude":-115.332824471,"stars":3.0,"review_count":258,"price_range":"2"},"58921":{"name":"Jason Alexander as Donny Clay","latitude":36.1099199804,"longitude":-115.171444646,"stars":3.5,"review_count":3,"price_range":null},"58922":{"name":"Childrens Choice","latitude":36.1022507,"longitude":-115.1699679,"stars":3.0,"review_count":6,"price_range":null},"58926":{"name":"Solid Gold Soul","latitude":36.1143212,"longitude":-115.1708662,"stars":4.5,"review_count":16,"price_range":null},"58939":{"name":"Las Vegas Valley Water District","latitude":36.1595341,"longitude":-115.1914569,"stars":2.0,"review_count":27,"price_range":null},"58946":{"name":"Ride N Style Customs","latitude":36.1447437,"longitude":-115.1913158,"stars":4.0,"review_count":7,"price_range":null},"58964":{"name":"Love Diamond Nails","latitude":36.1987263,"longitude":-115.2798467,"stars":4.0,"review_count":125,"price_range":"2"},"58986":{"name":"Park Hill Family Practice","latitude":36.1452871,"longitude":-115.255953,"stars":2.0,"review_count":13,"price_range":null},"58988":{"name":"Roma Deli II and Wine Shop","latitude":36.1445144,"longitude":-115.277522,"stars":4.0,"review_count":156,"price_range":"2"},"58989":{"name":"Grabbagreen Food & Juice","latitude":36.1454693,"longitude":-115.30089,"stars":5.0,"review_count":11,"price_range":"2"},"58990":{"name":"Icollision","latitude":36.1579314,"longitude":-115.2462891,"stars":4.5,"review_count":15,"price_range":null},"58991":{"name":"McDonald's","latitude":36.1586297,"longitude":-115.2630605,"stars":2.0,"review_count":35,"price_range":"1"},"58992":{"name":"Cugino's Pizzeria","latitude":36.2798148586,"longitude":-115.205640563,"stars":4.0,"review_count":102,"price_range":"1"},"58994":{"name":"BYOP of Nevada","latitude":36.2212552,"longitude":-115.3046635,"stars":4.5,"review_count":15,"price_range":null},"58995":{"name":"Short Line Express Market","latitude":36.2769527115,"longitude":-115.287363738,"stars":2.0,"review_count":7,"price_range":"2"},"59009":{"name":"Poke Heaven","latitude":36.1041615385,"longitude":-115.137631052,"stars":5.0,"review_count":72,"price_range":"1"},"59015":{"name":"Century 21 Consolidated","latitude":36.1154523,"longitude":-115.1115847,"stars":1.0,"review_count":3,"price_range":null},"59023":{"name":"Southwest Legal Group","latitude":36.115549,"longitude":-115.110514,"stars":2.0,"review_count":3,"price_range":null},"59031":{"name":"Advanced Medical Hair Institute","latitude":36.0751444,"longitude":-115.2901407,"stars":5.0,"review_count":5,"price_range":null},"59036":{"name":"The UPS Store","latitude":36.161629453,"longitude":-115.174065372,"stars":3.5,"review_count":19,"price_range":null},"59039":{"name":"American Male Salon - South","latitude":36.078686,"longitude":-115.241801,"stars":4.0,"review_count":109,"price_range":"2"},"59040":{"name":"Makeup by Andrea LV","latitude":36.0809667,"longitude":-115.2244853,"stars":5.0,"review_count":3,"price_range":null},"59042":{"name":"Del Taco","latitude":36.0577755,"longitude":-115.243734,"stars":3.0,"review_count":45,"price_range":"1"},"59043":{"name":"Winchell's Donut House","latitude":36.1438217,"longitude":-115.294084,"stars":2.5,"review_count":14,"price_range":"1"},"59044":{"name":"U-Swirl Frozen Yogurt","latitude":36.1585645,"longitude":-115.3111863,"stars":3.0,"review_count":79,"price_range":"1"},"59046":{"name":"Sentry Recovery and Collections","latitude":36.133405,"longitude":-115.2773223,"stars":1.0,"review_count":4,"price_range":null},"59051":{"name":"Vegas Valley Comic Book Festival","latitude":36.1136207581,"longitude":-115.13482666,"stars":4.0,"review_count":4,"price_range":null},"59053":{"name":"Strings Italian Cafe","latitude":36.1004963,"longitude":-115.121475,"stars":3.5,"review_count":49,"price_range":"2"},"59055":{"name":"Fox's Spy Outlet","latitude":36.1002609,"longitude":-115.1252933,"stars":3.0,"review_count":6,"price_range":null},"59056":{"name":"International Beauty Salon","latitude":36.1129986,"longitude":-115.1195721,"stars":3.0,"review_count":9,"price_range":null},"59059":{"name":"Carr Worx Motorsports","latitude":36.088981,"longitude":-115.2073104,"stars":5.0,"review_count":3,"price_range":null},"59067":{"name":"Poppa Naps BBQ","latitude":36.1165487,"longitude":-115.0881146,"stars":5.0,"review_count":122,"price_range":"2"},"59068":{"name":"Oasis Hand Car Wash","latitude":36.1147068,"longitude":-115.1020755,"stars":3.5,"review_count":119,"price_range":null},"59104":{"name":"Aargon Collection Agency","latitude":36.1274842545,"longitude":-115.281104935,"stars":2.0,"review_count":4,"price_range":null},"59119":{"name":"Pooper Picker Upper Kids","latitude":35.9706292,"longitude":-115.3074646,"stars":5.0,"review_count":10,"price_range":null},"59120":{"name":"Straight From Philly Steakout","latitude":36.1587759,"longitude":-115.2095739,"stars":4.0,"review_count":63,"price_range":"2"},"59122":{"name":"Discount Shoe Factory","latitude":36.1532612,"longitude":-115.2437966,"stars":4.0,"review_count":52,"price_range":"1"},"59133":{"name":"siegel suites","latitude":36.1177278,"longitude":-115.0673074,"stars":2.5,"review_count":3,"price_range":null},"59137":{"name":"Cricket Wireless","latitude":36.017589,"longitude":-115.1176516,"stars":1.0,"review_count":3,"price_range":"2"},"59140":{"name":"New Balance Factory Store","latitude":36.0549288,"longitude":-115.1691493,"stars":4.0,"review_count":22,"price_range":"2"},"59143":{"name":"Carl's Jr","latitude":36.0592584,"longitude":-115.2432525,"stars":2.5,"review_count":39,"price_range":"1"},"59144":{"name":"Dzung Tran, MD","latitude":36.0617457,"longitude":-115.2685338,"stars":3.5,"review_count":16,"price_range":null},"59154":{"name":"La Villa Estates Apartments","latitude":36.125905,"longitude":-115.3141779,"stars":2.5,"review_count":12,"price_range":null},"59163":{"name":"Tha Line Up Barbershop and Salon","latitude":36.0870479,"longitude":-115.1192015,"stars":4.5,"review_count":160,"price_range":"2"},"59164":{"name":"Partell Specialty Pharmacy","latitude":36.080459,"longitude":-115.119553,"stars":2.5,"review_count":21,"price_range":"2"},"59166":{"name":"La Quinta Inn & Suites Las Vegas Airport South","latitude":36.07014,"longitude":-115.123267,"stars":4.0,"review_count":106,"price_range":"2"},"59170":{"name":"American Laser Skincare","latitude":36.1437843,"longitude":-115.2596997,"stars":3.0,"review_count":9,"price_range":"3"},"59197":{"name":"Jackson Physical Therapy & Sports Medicine","latitude":36.1027413,"longitude":-115.2797626,"stars":4.5,"review_count":36,"price_range":null},"59198":{"name":"Paiz Latin & Vegan Food","latitude":36.1232761,"longitude":-115.2796896,"stars":4.5,"review_count":39,"price_range":"1"},"59201":{"name":"USA Money Today","latitude":36.130459,"longitude":-115.1062626,"stars":5.0,"review_count":6,"price_range":null},"59203":{"name":"Joshua Lemmens, LMT","latitude":36.1365,"longitude":-115.117063,"stars":5.0,"review_count":3,"price_range":"2"},"59206":{"name":"Closets Las Vegas","latitude":36.0562116,"longitude":-115.2463996,"stars":4.5,"review_count":21,"price_range":null},"59207":{"name":"Chick-A-Dees Children's Resale and Specialty Boutique","latitude":36.042037,"longitude":-115.278281,"stars":3.0,"review_count":3,"price_range":"1"},"59214":{"name":"Cafe at Harrah's","latitude":36.1183787,"longitude":-115.1726202,"stars":2.0,"review_count":75,"price_range":"2"},"59215":{"name":"Teahouse","latitude":36.1181654,"longitude":-115.1706363,"stars":2.0,"review_count":10,"price_range":"2"},"59216":{"name":"BCBG Max Azria","latitude":36.1214165678,"longitude":-115.169141274,"stars":3.0,"review_count":7,"price_range":"3"},"59220":{"name":"Spencer Springs Animal Hospital","latitude":36.057107,"longitude":-115.1267064,"stars":4.0,"review_count":120,"price_range":null},"59221":{"name":"TCG Junkie","latitude":36.07104443,"longitude":-115.130776614,"stars":4.0,"review_count":5,"price_range":"1"},"59234":{"name":"Las Vegas Premier Paintball","latitude":36.1860824,"longitude":-115.2849624,"stars":3.5,"review_count":33,"price_range":null},"59237":{"name":"Red Apple Grill","latitude":36.1591089,"longitude":-115.2509355,"stars":3.5,"review_count":6,"price_range":"1"},"59246":{"name":"Allstate Insurance Agent: Olivia Yabut","latitude":36.1130105977,"longitude":-115.261899014,"stars":4.5,"review_count":3,"price_range":null},"59275":{"name":"The Neck and Back Clinics","latitude":36.203502,"longitude":-115.080643,"stars":4.5,"review_count":8,"price_range":null},"59291":{"name":"Nevada Dental Associates","latitude":36.1144364,"longitude":-115.2753412,"stars":1.0,"review_count":6,"price_range":null},"59294":{"name":"Mega Cafe","latitude":36.1154163,"longitude":-115.3140301,"stars":2.5,"review_count":11,"price_range":"2"},"59338":{"name":"SafeDoggy","latitude":36.2903189,"longitude":-115.259845,"stars":4.5,"review_count":3,"price_range":null},"59339":{"name":"Superb Maids","latitude":36.175,"longitude":-115.213314,"stars":4.5,"review_count":230,"price_range":null},"59340":{"name":"Eyebrows R Us","latitude":36.2395558,"longitude":-115.1147678,"stars":2.5,"review_count":23,"price_range":"1"},"59355":{"name":"Sam's Club Pharmacy","latitude":36.0646857,"longitude":-115.246177,"stars":3.5,"review_count":5,"price_range":"2"},"59357":{"name":"Best 4 Less Beauty Salon","latitude":36.1003551,"longitude":-115.0984464,"stars":5.0,"review_count":18,"price_range":"1"},"59359":{"name":"Zenaida's Cafe","latitude":36.1017406138,"longitude":-115.100359042,"stars":5.0,"review_count":285,"price_range":"2"},"59362":{"name":"Community Dry Cleane","latitude":36.15798,"longitude":-115.046233,"stars":2.5,"review_count":6,"price_range":"2"},"59382":{"name":"The BubbleGum Gallery","latitude":36.1505377,"longitude":-115.1611302,"stars":5.0,"review_count":10,"price_range":"1"},"59384":{"name":"T-Mobile","latitude":36.1455967,"longitude":-115.1725869,"stars":4.0,"review_count":4,"price_range":null},"59395":{"name":"Cake Palace","latitude":36.0291019,"longitude":-115.1149607,"stars":3.5,"review_count":20,"price_range":"1"},"59399":{"name":"Big Lots - Las Vegas: Summerlin","latitude":36.2007271,"longitude":-115.2800887,"stars":3.0,"review_count":22,"price_range":"1"},"59401":{"name":"Storage West Self Storage","latitude":36.1876377,"longitude":-115.2603052,"stars":4.5,"review_count":7,"price_range":null},"59403":{"name":"Craig Ranch Dental Group","latitude":36.2403137135,"longitude":-115.122258534,"stars":5.0,"review_count":5,"price_range":null},"59438":{"name":"Axiom Las Vegas Spa Eyelash Extensions And Permanent Makeup","latitude":36.0282169012,"longitude":-115.117342472,"stars":4.5,"review_count":102,"price_range":"2"},"59439":{"name":"Lee Law Firm","latitude":36.1882101,"longitude":-115.2588713,"stars":4.0,"review_count":3,"price_range":null},"59445":{"name":"Calico Creek Stables","latitude":36.147847,"longitude":-115.413192,"stars":5.0,"review_count":3,"price_range":null},"59449":{"name":"European Motor Cars","latitude":36.1266946,"longitude":-115.1860013,"stars":3.5,"review_count":39,"price_range":null},"59454":{"name":"Canyon Villas","latitude":36.165921,"longitude":-115.323243,"stars":1.5,"review_count":14,"price_range":null},"59473":{"name":"Bath & Body Works","latitude":36.2410882,"longitude":-115.2338102,"stars":4.0,"review_count":9,"price_range":"2"},"59480":{"name":"Hayat Jawadi, DO - Premier Ob\/Gyn of Southern Nevada","latitude":36.0564622,"longitude":-115.268793893,"stars":4.5,"review_count":8,"price_range":null},"59494":{"name":"O'Aces Bar & Grill","latitude":36.0989299,"longitude":-115.208216,"stars":4.0,"review_count":77,"price_range":"2"},"59499":{"name":"Cafe Sienna","latitude":36.1700270996,"longitude":-115.292602032,"stars":2.5,"review_count":7,"price_range":"2"},"59517":{"name":"Big Buck's Towing","latitude":36.1719093323,"longitude":-115.139968872,"stars":5.0,"review_count":19,"price_range":null},"59520":{"name":"Samurai Motors","latitude":36.1265158,"longitude":-115.1920065,"stars":5.0,"review_count":116,"price_range":null},"59523":{"name":"Free Vegas Club Passes","latitude":36.0833352,"longitude":-115.0999753,"stars":5.0,"review_count":417,"price_range":null},"59527":{"name":"SDX Bus","latitude":36.1640608,"longitude":-115.1548268,"stars":4.0,"review_count":5,"price_range":null},"59531":{"name":"7-Eleven","latitude":36.151746,"longitude":-115.1629727,"stars":2.5,"review_count":3,"price_range":"2"},"59543":{"name":"Zappos Shoe Outlet","latitude":36.0473794,"longitude":-115.1814358,"stars":3.0,"review_count":11,"price_range":"2"},"59560":{"name":"Bank of America","latitude":36.1603269,"longitude":-115.1723,"stars":3.5,"review_count":7,"price_range":null},"59571":{"name":"Metal Man","latitude":36.0935931,"longitude":-115.191357,"stars":5.0,"review_count":4,"price_range":null},"59577":{"name":"Mystique Lashes'N Skin Care","latitude":36.2403946,"longitude":-115.2499727,"stars":5.0,"review_count":17,"price_range":"2"},"59585":{"name":"Walmart Pharmacy","latitude":36.2205624,"longitude":-115.3244324,"stars":3.0,"review_count":4,"price_range":null},"59591":{"name":"Duck Creek Park","latitude":36.0327199818,"longitude":-115.143413544,"stars":3.5,"review_count":19,"price_range":null},"59595":{"name":"Power Yoga + Pilates + Fitness","latitude":36.1458529892,"longitude":-115.299391579,"stars":4.5,"review_count":51,"price_range":null},"59606":{"name":"Synergy Companies","latitude":36.2737796,"longitude":-115.252873,"stars":2.5,"review_count":3,"price_range":null},"59607":{"name":"Navy Federal Credit Union","latitude":36.2729928,"longitude":-115.207234,"stars":3.5,"review_count":29,"price_range":null},"59609":{"name":"Fihn Greg, APH","latitude":36.274141,"longitude":-115.258158,"stars":3.0,"review_count":21,"price_range":null},"59656":{"name":"Graphics Design Media","latitude":36.099515205,"longitude":-115.112028241,"stars":4.0,"review_count":4,"price_range":null},"59661":{"name":"Burger King","latitude":36.1427118,"longitude":-115.0661126,"stars":4.0,"review_count":4,"price_range":"1"},"59664":{"name":"Eyebrow Threading Art and More","latitude":36.1174896,"longitude":-115.1027513,"stars":4.5,"review_count":15,"price_range":"1"},"59665":{"name":"Residential Mortgage Services","latitude":36.12051,"longitude":-115.09151,"stars":5.0,"review_count":20,"price_range":null},"59680":{"name":"Hitzville The Show - Motown Revue","latitude":36.1107671365,"longitude":-115.172638893,"stars":4.5,"review_count":60,"price_range":"2"},"59681":{"name":"I Love Yogurt","latitude":36.2780439,"longitude":-115.2871971,"stars":4.5,"review_count":20,"price_range":"1"},"59682":{"name":"Ichi Ramen House","latitude":36.2715522,"longitude":-115.2676311,"stars":4.0,"review_count":390,"price_range":"2"},"59684":{"name":"Rockstar Nails & Spa","latitude":36.283809,"longitude":-115.2870808,"stars":4.0,"review_count":116,"price_range":"2"},"59685":{"name":"Ron Herman","latitude":36.1189986,"longitude":-115.1761463,"stars":4.0,"review_count":3,"price_range":null},"59686":{"name":"Ride-A-Sybian","latitude":36.1231481,"longitude":-115.1709535,"stars":2.5,"review_count":3,"price_range":null},"59687":{"name":"Diplomat Exotic Rentals","latitude":36.1423259,"longitude":-115.1561477,"stars":5.0,"review_count":21,"price_range":null},"59721":{"name":"Asian Imports Plus","latitude":36.0632777,"longitude":-115.2286392,"stars":4.0,"review_count":35,"price_range":null},"59724":{"name":"Goldfinger's Bar & Grill","latitude":36.005924,"longitude":-115.1389547,"stars":4.0,"review_count":36,"price_range":"1"},"59730":{"name":"Rhee's Acupuncture & Herb Medicine","latitude":36.1472155,"longitude":-115.1525534,"stars":4.0,"review_count":4,"price_range":null},"59732":{"name":"Big Cat Boxing & Fitness","latitude":36.0670484,"longitude":-115.2519877,"stars":4.5,"review_count":12,"price_range":null},"59741":{"name":"D. Bruce Anderson Attorney At Law","latitude":36.1802964,"longitude":-115.2430056,"stars":5.0,"review_count":4,"price_range":null},"59742":{"name":"Nevada Divorce Center","latitude":36.1803648,"longitude":-115.2416664,"stars":2.5,"review_count":5,"price_range":null},"59744":{"name":"Eli Roth's Goretorium","latitude":36.1089133,"longitude":-115.1727284,"stars":3.5,"review_count":118,"price_range":null},"59745":{"name":"Montecito Dental - Dr. Hart","latitude":36.2914705848,"longitude":-115.286476552,"stars":3.5,"review_count":17,"price_range":null},"59746":{"name":"Lullaby Lane Boutique Baby Photography","latitude":36.1131599,"longitude":-115.172793,"stars":4.0,"review_count":10,"price_range":null},"59753":{"name":"T-Rex Chevron","latitude":36.145027,"longitude":-115.0465528,"stars":3.5,"review_count":5,"price_range":null},"59754":{"name":"The Hairapist 702","latitude":36.0707803,"longitude":-115.2457721,"stars":5.0,"review_count":11,"price_range":"2"},"59755":{"name":"CareNow","latitude":36.0591588,"longitude":-115.2791418,"stars":3.0,"review_count":56,"price_range":null},"59792":{"name":"Needham Law Firm","latitude":36.1594342,"longitude":-115.1856633,"stars":5.0,"review_count":7,"price_range":null},"59793":{"name":"Monsoon VIP of Las Vegas","latitude":36.1462673,"longitude":-115.1829873,"stars":5.0,"review_count":8,"price_range":"2"},"59818":{"name":"Instyle Nails","latitude":36.1139112,"longitude":-115.2960787,"stars":4.5,"review_count":44,"price_range":"2"},"59819":{"name":"Desert Plastic Surgery Center","latitude":36.1122889,"longitude":-115.297923,"stars":1.5,"review_count":16,"price_range":null},"59821":{"name":"Heiress & Lux","latitude":36.1164498,"longitude":-115.2613622,"stars":5.0,"review_count":7,"price_range":"1"},"59834":{"name":"Kaylor's Pool & Spa","latitude":36.319104,"longitude":-115.220069,"stars":5.0,"review_count":5,"price_range":null},"59836":{"name":"Broadside tattoo","latitude":36.1085129786,"longitude":-115.137176428,"stars":5.0,"review_count":22,"price_range":"2"},"59847":{"name":"Windy City Beefs N Pizza","latitude":36.0124990687,"longitude":-115.119525599,"stars":4.0,"review_count":428,"price_range":"1"},"59861":{"name":"The Minimally Invasive Hand Institute","latitude":36.0743102,"longitude":-115.290647,"stars":3.0,"review_count":26,"price_range":null},"59873":{"name":"Beauty Center","latitude":36.2914974,"longitude":-115.2877066,"stars":3.5,"review_count":3,"price_range":"2"},"59874":{"name":"Port of Subs","latitude":36.2409489,"longitude":-115.1592072,"stars":3.0,"review_count":19,"price_range":"1"},"59879":{"name":"Vinny's New York Seafood Bar & Cafe","latitude":36.1355399,"longitude":-115.2784417,"stars":4.5,"review_count":4,"price_range":"2"},"59882":{"name":"Kivera Laser Spa","latitude":36.1575464,"longitude":-115.2860736,"stars":5.0,"review_count":5,"price_range":"1"},"59889":{"name":"Diamond Head Sign","latitude":36.0955336,"longitude":-115.1851652,"stars":4.5,"review_count":6,"price_range":null},"59898":{"name":"No 1 Nail Salon","latitude":36.158885,"longitude":-115.050547,"stars":3.0,"review_count":41,"price_range":"2"},"59899":{"name":"Quest Diagnostics","latitude":36.1426642064,"longitude":-115.137555264,"stars":2.5,"review_count":17,"price_range":null},"59906":{"name":"Tami Dukie Your Breastfeeding Guru","latitude":36.0402159,"longitude":-115.2244853,"stars":4.0,"review_count":28,"price_range":null},"59908":{"name":"Extra Space Storage","latitude":36.1584152,"longitude":-115.2205138,"stars":4.5,"review_count":11,"price_range":null},"59935":{"name":"Vegas Painters","latitude":36.1320226484,"longitude":-115.187277713,"stars":3.0,"review_count":14,"price_range":null},"59936":{"name":"Accolade Law","latitude":36.1583593,"longitude":-115.1826386,"stars":5.0,"review_count":5,"price_range":null},"59966":{"name":"Iced Out Barber Shop","latitude":36.0580753,"longitude":-115.2784336,"stars":3.5,"review_count":87,"price_range":"2"},"59987":{"name":"Greentec Auto","latitude":36.1222349,"longitude":-115.1892856,"stars":4.5,"review_count":3,"price_range":"2"},"59995":{"name":"Perfumes 4 U","latitude":36.1629318,"longitude":-115.15825,"stars":3.5,"review_count":6,"price_range":null},"59998":{"name":"kate spade new york Outlet","latitude":36.1644639,"longitude":-115.1579491,"stars":3.5,"review_count":58,"price_range":"2"},"60004":{"name":"Lima Limon","latitude":36.171017,"longitude":-115.207055,"stars":4.0,"review_count":253,"price_range":"2"},"60005":{"name":"Asylum and Hotel Fear Haunted House","latitude":36.1727096745,"longitude":-115.199892172,"stars":4.0,"review_count":56,"price_range":null},"60010":{"name":"Las Vegas Badminton Club","latitude":36.0710298,"longitude":-115.188462,"stars":4.5,"review_count":3,"price_range":null},"60013":{"name":"Broken Spoke Bikes","latitude":36.1599932,"longitude":-115.3500789,"stars":4.0,"review_count":45,"price_range":"2"},"60018":{"name":"Legacy Wealth Management Group of Las Vegas","latitude":36.0394169345,"longitude":-115.119991292,"stars":5.0,"review_count":6,"price_range":null},"60019":{"name":"Mattress Firm Clearance","latitude":36.0208187,"longitude":-115.1260001,"stars":4.5,"review_count":56,"price_range":"2"},"60030":{"name":"Antique Oriental Rugs Center","latitude":36.1425947,"longitude":-115.2491684,"stars":4.0,"review_count":10,"price_range":null},"60037":{"name":"H&R Block","latitude":36.1432915375,"longitude":-115.275821229,"stars":2.5,"review_count":5,"price_range":null},"60039":{"name":"Absolute Art","latitude":36.1453333,"longitude":-115.2778317,"stars":4.5,"review_count":7,"price_range":null},"60045":{"name":"Las Vegas Auto Insurance","latitude":36.1948063,"longitude":-115.2061088,"stars":4.0,"review_count":12,"price_range":null},"60046":{"name":"Kid To Kid","latitude":36.1456867034,"longitude":-115.299598392,"stars":3.5,"review_count":54,"price_range":"1"},"60047":{"name":"Wireless Doctor Computer Solutions","latitude":36.159901,"longitude":-115.278969,"stars":4.5,"review_count":126,"price_range":null},"60048":{"name":"Club Metro Las Vegas","latitude":36.144498,"longitude":-115.140877,"stars":4.0,"review_count":5,"price_range":null},"60050":{"name":"Dream Therapies","latitude":36.046364,"longitude":-115.1557121,"stars":3.0,"review_count":10,"price_range":null},"60052":{"name":"Hamilton Craig R W, OD","latitude":36.0281627,"longitude":-115.1215575,"stars":5.0,"review_count":3,"price_range":"2"},"60067":{"name":"Arthritis & Rheumatism Institute","latitude":36.036383,"longitude":-115.117757,"stars":3.0,"review_count":10,"price_range":null},"60069":{"name":"Prometric Testing Center","latitude":36.0283024,"longitude":-115.1215696,"stars":3.5,"review_count":3,"price_range":null},"60077":{"name":"Nailz Swag Studio","latitude":36.1017696,"longitude":-115.302372,"stars":5.0,"review_count":16,"price_range":"2"},"60079":{"name":"Health Is Life Cafe","latitude":36.106477,"longitude":-115.2980657,"stars":5.0,"review_count":3,"price_range":null},"60082":{"name":"Nails","latitude":36.1229755,"longitude":-115.2090921,"stars":3.0,"review_count":8,"price_range":"1"},"60087":{"name":"Desert Wildlife National Refuge","latitude":36.4382486207,"longitude":-115.358917974,"stars":4.5,"review_count":14,"price_range":null},"60091":{"name":"Cleopatra In Vegas","latitude":36.0563775,"longitude":-115.2659777,"stars":5.0,"review_count":3,"price_range":null},"60096":{"name":"Brittany's Beauty Boutique","latitude":36.1594404059,"longitude":-115.208634809,"stars":5.0,"review_count":3,"price_range":null},"60097":{"name":"The Barber Lounge","latitude":36.1580687406,"longitude":-115.24453758,"stars":4.5,"review_count":8,"price_range":"2"},"60098":{"name":"Headache Specialists","latitude":36.1377461027,"longitude":-115.225847874,"stars":3.0,"review_count":12,"price_range":null},"60104":{"name":"Tre Bella Cafe","latitude":36.089994,"longitude":-115.243512,"stars":3.5,"review_count":3,"price_range":"1"},"60109":{"name":"Ancient Spa & Boutique","latitude":36.043712,"longitude":-115.232353,"stars":3.5,"review_count":21,"price_range":"1"},"60125":{"name":"OSM","latitude":36.136652,"longitude":-115.17888,"stars":1.5,"review_count":13,"price_range":null},"60133":{"name":"Wingstop","latitude":36.158247,"longitude":-115.137687,"stars":4.5,"review_count":17,"price_range":"2"},"60146":{"name":"Best Clean Carpet & Upholstery Cleaning","latitude":36.261217,"longitude":-115.2473953,"stars":5.0,"review_count":5,"price_range":null},"60152":{"name":"Rivera Inspection Services","latitude":36.2493951,"longitude":-115.2307402,"stars":3.5,"review_count":6,"price_range":null},"60173":{"name":"No 1 Nails & Skincare","latitude":36.158434224,"longitude":-115.050850811,"stars":3.0,"review_count":11,"price_range":null},"60174":{"name":"Dan Dee Dry Cleaners","latitude":36.130215,"longitude":-115.083924,"stars":4.0,"review_count":7,"price_range":"2"},"60199":{"name":"Bellusso","latitude":36.1243165281,"longitude":-115.168769837,"stars":4.5,"review_count":15,"price_range":"4"},"60208":{"name":"The Phat Pack","latitude":36.1143003477,"longitude":-115.172904412,"stars":4.5,"review_count":10,"price_range":null},"60227":{"name":"Craig Road Animal Hospital","latitude":36.2389590822,"longitude":-115.211567534,"stars":4.0,"review_count":245,"price_range":null},"60252":{"name":"Starbucks","latitude":36.128386,"longitude":-115.3144557,"stars":3.5,"review_count":37,"price_range":"1"},"60254":{"name":"New Shanghai Restaurant","latitude":36.1263785,"longitude":-115.1969907,"stars":2.5,"review_count":27,"price_range":"2"},"60262":{"name":"United Way of Southern Nevada","latitude":36.1152156,"longitude":-115.2212804,"stars":5.0,"review_count":4,"price_range":null},"60263":{"name":"Vape Shop Las Vegas","latitude":36.1151927,"longitude":-115.2320254,"stars":5.0,"review_count":16,"price_range":"2"},"60264":{"name":"Borgata Development","latitude":36.1100009,"longitude":-115.222145,"stars":2.0,"review_count":4,"price_range":null},"60275":{"name":"Kids Planet","latitude":36.1126407225,"longitude":-115.279438035,"stars":4.0,"review_count":59,"price_range":null},"60284":{"name":"Crazy Horse 3 Gentlemen's Club","latitude":36.084955,"longitude":-115.187093,"stars":3.0,"review_count":189,"price_range":"2"},"60285":{"name":"Maid Brigade of Las Vegas","latitude":36.094713,"longitude":-115.184732,"stars":4.0,"review_count":26,"price_range":null},"60286":{"name":"The Beacon Center","latitude":36.0925566839,"longitude":-115.201255304,"stars":5.0,"review_count":46,"price_range":null},"60288":{"name":"Sin City Entertainment","latitude":36.0754554458,"longitude":-115.181801525,"stars":5.0,"review_count":5,"price_range":null},"60296":{"name":"All American Park","latitude":36.1513441,"longitude":-115.2615273,"stars":4.0,"review_count":18,"price_range":null},"60298":{"name":"Siems LASIK and Eye Center","latitude":36.1444966,"longitude":-115.271303,"stars":3.5,"review_count":65,"price_range":null},"60312":{"name":"Acupuncture Vegas","latitude":36.1401296,"longitude":-115.2835033,"stars":5.0,"review_count":47,"price_range":null},"60313":{"name":"Christian Purdie Photography","latitude":36.1931933,"longitude":-115.2596428,"stars":5.0,"review_count":19,"price_range":null},"60315":{"name":"Perfect Nails","latitude":36.1439446912,"longitude":-115.296010136,"stars":3.5,"review_count":73,"price_range":"2"},"60321":{"name":"CrossFit Mountain's Edge","latitude":36.0734561731,"longitude":-115.243552202,"stars":5.0,"review_count":13,"price_range":null},"60326":{"name":"Saborr","latitude":36.240912,"longitude":-115.078765,"stars":4.0,"review_count":129,"price_range":"1"},"60330":{"name":"Eagle Trace Apartments","latitude":36.2434967,"longitude":-115.0542825,"stars":1.5,"review_count":30,"price_range":null},"60333":{"name":"Optic Gallery","latitude":36.0634982,"longitude":-115.2507429,"stars":4.5,"review_count":75,"price_range":"2"},"60350":{"name":"3 Dot Sight Group","latitude":36.3656399,"longitude":-115.2244853,"stars":4.0,"review_count":5,"price_range":null},"60384":{"name":"Family Pet Salon","latitude":36.2031978,"longitude":-115.2599508,"stars":4.0,"review_count":11,"price_range":null},"60390":{"name":"Potato Corner","latitude":36.172577,"longitude":-115.197211,"stars":4.5,"review_count":16,"price_range":"1"},"60393":{"name":"Yoga Kandy","latitude":36.2576752,"longitude":-115.2304131,"stars":5.0,"review_count":9,"price_range":null},"60394":{"name":"Advance Mufflers","latitude":36.2200854,"longitude":-115.2156382,"stars":4.5,"review_count":46,"price_range":null},"60408":{"name":"Steve Madden Retail","latitude":36.070098,"longitude":-115.172214,"stars":3.5,"review_count":7,"price_range":"3"},"60409":{"name":"FedEx Office Print & Ship Center","latitude":36.0848569,"longitude":-115.1195138,"stars":2.0,"review_count":24,"price_range":null},"60418":{"name":"Pest Control Solutions","latitude":35.9963485959,"longitude":-115.207548693,"stars":5.0,"review_count":69,"price_range":null},"60419":{"name":"Maple Cleaners","latitude":35.9836846,"longitude":-115.1900739,"stars":3.5,"review_count":32,"price_range":"2"},"60424":{"name":"LV CARS","latitude":36.1439364,"longitude":-115.1176522,"stars":1.0,"review_count":4,"price_range":null},"60425":{"name":"Zumiez","latitude":36.0525016,"longitude":-115.1689034,"stars":3.5,"review_count":11,"price_range":"2"},"60428":{"name":"Mo's Pizzeria","latitude":36.1884232,"longitude":-115.2241091,"stars":4.0,"review_count":21,"price_range":"1"},"60441":{"name":"Molly Malone's Irish Pub","latitude":35.973171,"longitude":-115.182206,"stars":3.0,"review_count":42,"price_range":"2"},"60443":{"name":"Anything U Want Delivery Service","latitude":36.0357492,"longitude":-115.1533426,"stars":4.5,"review_count":103,"price_range":"2"},"60469":{"name":"Cast N Anchor Tattoo","latitude":36.071753,"longitude":-115.088235,"stars":5.0,"review_count":6,"price_range":"2"},"60487":{"name":"Tintek Window Tinting","latitude":36.0931839,"longitude":-115.1904983,"stars":5.0,"review_count":18,"price_range":null},"60489":{"name":"Nevada Heart & Vascular Center","latitude":36.0849959,"longitude":-115.1998,"stars":3.5,"review_count":11,"price_range":null},"60490":{"name":"AMEN Missionary Ministry International","latitude":36.126136,"longitude":-115.2224651,"stars":4.5,"review_count":3,"price_range":null},"60510":{"name":"John Varvatos","latitude":36.1100828,"longitude":-115.1538714,"stars":4.0,"review_count":9,"price_range":"3"},"60511":{"name":"Thai D Togo","latitude":36.1227751822,"longitude":-115.144582987,"stars":4.0,"review_count":83,"price_range":"1"},"60513":{"name":"FedEx Office Print & Ship Center","latitude":36.1159870269,"longitude":-115.154833719,"stars":3.0,"review_count":57,"price_range":null},"60514":{"name":"Squeeze In","latitude":36.0957104,"longitude":-115.2982167,"stars":4.5,"review_count":376,"price_range":"2"},"60515":{"name":"Dairy Queen","latitude":36.0696703,"longitude":-115.2983435,"stars":2.0,"review_count":84,"price_range":"1"},"60516":{"name":"Veggy Street","latitude":36.0949946,"longitude":-115.2982015,"stars":4.5,"review_count":150,"price_range":"2"},"60517":{"name":"Carino's Italian Grill","latitude":36.288706,"longitude":-115.287007,"stars":2.5,"review_count":3,"price_range":"2"},"60518":{"name":"Chase Bank","latitude":36.241022,"longitude":-115.251823,"stars":2.5,"review_count":11,"price_range":null},"60527":{"name":"Ace Patio Covers","latitude":36.108091175,"longitude":-115.188231304,"stars":5.0,"review_count":5,"price_range":null},"60528":{"name":"Concrete Texturing","latitude":36.0730523,"longitude":-115.1886704,"stars":3.0,"review_count":19,"price_range":null},"60532":{"name":"Aloha Nails & Spa","latitude":36.2417747,"longitude":-115.2501424,"stars":4.5,"review_count":15,"price_range":"2"},"60533":{"name":"Centennial Hills Salon & Day Spa","latitude":36.2700276,"longitude":-115.2696018,"stars":4.0,"review_count":94,"price_range":"2"},"60534":{"name":"Ace Hardware","latitude":36.219879,"longitude":-115.276746,"stars":4.0,"review_count":25,"price_range":"2"},"60536":{"name":"Dairy Queen","latitude":36.0427280868,"longitude":-115.150893343,"stars":2.5,"review_count":14,"price_range":"1"},"60537":{"name":"Hush Puppies Factory Direct","latitude":36.0531531806,"longitude":-115.170544049,"stars":4.0,"review_count":4,"price_range":"2"},"60544":{"name":"Twin Translations","latitude":36.1710616,"longitude":-115.3667218,"stars":3.5,"review_count":3,"price_range":null},"60548":{"name":"Neuropathy and Pain Centers of America","latitude":36.1444796,"longitude":-115.2672798,"stars":3.5,"review_count":3,"price_range":null},"60551":{"name":"King & I","latitude":36.138984,"longitude":-115.284115,"stars":4.0,"review_count":249,"price_range":"2"},"60555":{"name":"Bell Towing","latitude":35.99,"longitude":-115.09,"stars":2.0,"review_count":4,"price_range":null},"60557":{"name":"Modern Image Hair Designs","latitude":36.157637,"longitude":-115.286132,"stars":5.0,"review_count":5,"price_range":"2"},"60560":{"name":"Officemax","latitude":36.2005627,"longitude":-115.2435675,"stars":2.0,"review_count":8,"price_range":"2"},"60574":{"name":"It's Mine Now Kids Resale","latitude":36.2185429,"longitude":-115.2595642,"stars":5.0,"review_count":5,"price_range":"1"},"60582":{"name":"Trading Labels","latitude":36.1408920576,"longitude":-115.2768,"stars":4.5,"review_count":16,"price_range":"2"},"60584":{"name":"EZB Consulting","latitude":36.1453333,"longitude":-115.2778317,"stars":5.0,"review_count":5,"price_range":null},"60586":{"name":"Charm Transportation","latitude":36.1453333,"longitude":-115.2778317,"stars":5.0,"review_count":3,"price_range":null},"60589":{"name":"Golden Spoon Frozen Yogurt","latitude":36.2912405,"longitude":-115.2874408,"stars":3.5,"review_count":44,"price_range":"1"},"60591":{"name":"Optic Gallery","latitude":36.281587,"longitude":-115.287343,"stars":4.5,"review_count":28,"price_range":"2"},"60592":{"name":"High Quality Service","latitude":36.2330997,"longitude":-115.2719048,"stars":5.0,"review_count":83,"price_range":null},"60601":{"name":"Vegas CheeseSteaks","latitude":36.2030945,"longitude":-115.2244853,"stars":3.5,"review_count":6,"price_range":"1"},"60615":{"name":"Chef Marc's Trattoria","latitude":36.1429690732,"longitude":-115.280102938,"stars":4.5,"review_count":243,"price_range":"2"},"60616":{"name":"Teriyaki Madness","latitude":36.1440204,"longitude":-115.2971864,"stars":3.0,"review_count":34,"price_range":"2"},"60630":{"name":"Meineke Car Care Center","latitude":36.2410223266,"longitude":-115.079283977,"stars":3.0,"review_count":10,"price_range":null},"60656":{"name":"Lucky Tropical Fish","latitude":36.1266955,"longitude":-115.2051928,"stars":3.5,"review_count":17,"price_range":null},"60684":{"name":"Mirage Collision","latitude":36.0990364105,"longitude":-115.204126686,"stars":4.0,"review_count":12,"price_range":null},"60689":{"name":"Joey Re - Wardley Real Estate","latitude":36.1802964,"longitude":-115.2430056,"stars":2.0,"review_count":8,"price_range":null},"60691":{"name":"Okada","latitude":36.1268768,"longitude":-115.1658732,"stars":4.0,"review_count":201,"price_range":"4"},"60693":{"name":"Chevron - Terrible Herbst","latitude":36.2769665,"longitude":-115.2792874,"stars":1.5,"review_count":16,"price_range":null},"60694":{"name":"Canyon Ranch Cafe","latitude":36.123752,"longitude":-115.167923,"stars":3.5,"review_count":117,"price_range":"2"},"60695":{"name":"Second City","latitude":36.1156902,"longitude":-115.1713943,"stars":3.0,"review_count":5,"price_range":null},"60699":{"name":"Rivas Mexican Grill","latitude":36.1449806,"longitude":-115.048122,"stars":4.0,"review_count":79,"price_range":"1"},"60709":{"name":"Rubicon Club & Grill","latitude":36.022737,"longitude":-115.175131,"stars":5.0,"review_count":3,"price_range":"2"},"60711":{"name":"Alternative Junkie","latitude":36.0166766781,"longitude":-115.118226043,"stars":5.0,"review_count":4,"price_range":"2"},"60719":{"name":"Fat Tuesday","latitude":36.1472468,"longitude":-115.1560311,"stars":4.5,"review_count":35,"price_range":"1"},"60730":{"name":"Coruscate Salon","latitude":36.0560801,"longitude":-115.2808739,"stars":4.0,"review_count":5,"price_range":null},"60731":{"name":"Sassy Lashes","latitude":36.0786181,"longitude":-115.2987659,"stars":4.5,"review_count":118,"price_range":"2"},"60732":{"name":"Hillcrest Dental","latitude":36.2210742,"longitude":-115.3285773,"stars":5.0,"review_count":53,"price_range":null},"60734":{"name":"Panda Express","latitude":36.281315,"longitude":-115.287263,"stars":3.0,"review_count":35,"price_range":"1"},"60735":{"name":"Gilcrease Brothers Park","latitude":36.3030056,"longitude":-115.3146605,"stars":4.5,"review_count":11,"price_range":null},"60749":{"name":"Target Portrait Studios","latitude":36.161073,"longitude":-115.287009,"stars":4.0,"review_count":5,"price_range":null},"60752":{"name":"Bombard Renewable Energy","latitude":36.0809667,"longitude":-115.2244853,"stars":3.5,"review_count":8,"price_range":null},"60753":{"name":"Cannacopia Marijuana Dispensary","latitude":36.0737159,"longitude":-115.2420944,"stars":4.0,"review_count":49,"price_range":"2"},"60755":{"name":"HIIT Life Fitness","latitude":36.0844989,"longitude":-115.2412497,"stars":5.0,"review_count":9,"price_range":null},"60756":{"name":"Anthem Pediatrics","latitude":36.0786511,"longitude":-115.2417425,"stars":4.0,"review_count":21,"price_range":null},"60758":{"name":"LT Nails and Spa","latitude":36.0985793,"longitude":-115.2424436,"stars":4.5,"review_count":123,"price_range":"1"},"60762":{"name":"Scales N Tails - Las Vegas","latitude":36.0871178763,"longitude":-115.101307932,"stars":4.0,"review_count":14,"price_range":null},"60766":{"name":"Burger King","latitude":36.1736526489,"longitude":-115.244499207,"stars":2.5,"review_count":11,"price_range":"1"},"60768":{"name":"Times Square To Go","latitude":36.1023786,"longitude":-115.1745465,"stars":2.5,"review_count":18,"price_range":"1"},"60769":{"name":"Las Vegas Haunted Tour","latitude":36.169886,"longitude":-115.1412402,"stars":2.0,"review_count":4,"price_range":null},"60770":{"name":"El Canelo Restaurant","latitude":36.160158,"longitude":-115.10591,"stars":3.5,"review_count":22,"price_range":"2"},"60777":{"name":"Downtown Summerlin","latitude":36.1521765584,"longitude":-115.333365472,"stars":4.0,"review_count":262,"price_range":"2"},"60778":{"name":"Costa di Mare","latitude":36.1258186188,"longitude":-115.167175591,"stars":3.5,"review_count":548,"price_range":"4"},"60780":{"name":"VEGAS! The Show","latitude":36.110975,"longitude":-115.172145,"stars":4.5,"review_count":285,"price_range":null},"60781":{"name":"Honolulu Cookie Company - Grand Canal Shoppes","latitude":36.1240615,"longitude":-115.167872,"stars":4.5,"review_count":201,"price_range":"2"},"60784":{"name":"Mizuya Lounge","latitude":36.091462013,"longitude":-115.176104307,"stars":3.0,"review_count":25,"price_range":"2"},"60799":{"name":"Pub 365","latitude":36.113105,"longitude":-115.160233,"stars":4.0,"review_count":135,"price_range":"2"},"60803":{"name":"Laos Market","latitude":36.1761306,"longitude":-115.1369366,"stars":4.5,"review_count":41,"price_range":"1"},"60813":{"name":"La Madonna","latitude":36.0773783,"longitude":-115.2985159,"stars":4.0,"review_count":9,"price_range":"3"},"60814":{"name":"Ron's Market Eastern European Meat & Deli","latitude":36.0789703,"longitude":-115.298266,"stars":4.0,"review_count":68,"price_range":"1"},"60819":{"name":"Rapid Cash","latitude":36.086781,"longitude":-115.118358,"stars":3.5,"review_count":7,"price_range":null},"60820":{"name":"Texas de Brazil","latitude":36.0701338,"longitude":-115.1753307,"stars":4.5,"review_count":659,"price_range":"3"},"60822":{"name":"Paradise Nail Bar","latitude":36.1599932,"longitude":-115.3500789,"stars":2.5,"review_count":102,"price_range":null},"60823":{"name":"Dinos Plumbing","latitude":36.1605691,"longitude":-115.3208852,"stars":4.0,"review_count":35,"price_range":null},"60830":{"name":"Krush Las Vegas","latitude":36.1037563,"longitude":-115.1987367,"stars":3.5,"review_count":15,"price_range":"2"},"60835":{"name":"Onyx Vegas","latitude":36.0612353,"longitude":-115.2896852,"stars":5.0,"review_count":6,"price_range":null},"60836":{"name":"The Trophy Stop","latitude":36.2195959,"longitude":-115.2520216,"stars":5.0,"review_count":4,"price_range":null},"60849":{"name":"Meineke Car Care Center","latitude":36.1317593261,"longitude":-115.064784428,"stars":5.0,"review_count":20,"price_range":null},"60860":{"name":"Canyon Falls Spa & Salon","latitude":36.2403946,"longitude":-115.2499727,"stars":3.5,"review_count":29,"price_range":"2"},"60861":{"name":"CVS\/pharmacy","latitude":36.2198297288,"longitude":-115.274655612,"stars":2.0,"review_count":31,"price_range":"2"},"60863":{"name":"2nd Generation Pest Control","latitude":36.2684007,"longitude":-115.2956118,"stars":3.5,"review_count":5,"price_range":null},"60882":{"name":"Rock of Ages","latitude":36.1169648,"longitude":-115.185696,"stars":4.0,"review_count":212,"price_range":null},"60890":{"name":"Min Sok Chon","latitude":36.1001961,"longitude":-115.1269689,"stars":4.0,"review_count":24,"price_range":"2"},"60897":{"name":"Nevadas Finest Properties","latitude":36.0863474,"longitude":-115.0973345,"stars":1.5,"review_count":9,"price_range":null},"60900":{"name":"University Auto Spa","latitude":36.1015397,"longitude":-115.1373611,"stars":3.5,"review_count":20,"price_range":null},"60908":{"name":"Embassy Nightclub","latitude":36.1275096504,"longitude":-115.188356267,"stars":3.5,"review_count":59,"price_range":"2"},"60909":{"name":"The Cheesecake Factory","latitude":36.1646282753,"longitude":-115.28920699,"stars":3.5,"review_count":627,"price_range":"2"},"60911":{"name":"Social Paintbrush","latitude":36.19518,"longitude":-115.2573615,"stars":4.0,"review_count":8,"price_range":null},"60913":{"name":"Clifford J Molin, MD","latitude":36.20537,"longitude":-115.2548156,"stars":4.0,"review_count":16,"price_range":null},"60915":{"name":"Spilotro and Kulla","latitude":36.164037,"longitude":-115.147365,"stars":2.5,"review_count":5,"price_range":null},"60920":{"name":"Ed Hardy","latitude":36.1643156,"longitude":-115.1574463,"stars":4.0,"review_count":4,"price_range":"2"},"60928":{"name":"Loft","latitude":36.1486319,"longitude":-115.3334385,"stars":4.0,"review_count":4,"price_range":"2"},"60929":{"name":"Apache RV","latitude":36.0699358,"longitude":-115.199224,"stars":3.0,"review_count":4,"price_range":null},"60930":{"name":"Encore Lobby Bar","latitude":36.1267672,"longitude":-115.1651078,"stars":4.0,"review_count":97,"price_range":"2"},"60933":{"name":"Eforea","latitude":36.1399283,"longitude":-115.1600681,"stars":4.0,"review_count":22,"price_range":"3"},"60934":{"name":"Rainforest Cafe","latitude":36.1088741512,"longitude":-115.171956647,"stars":3.0,"review_count":243,"price_range":"2"},"60935":{"name":"Alexxa's Bar","latitude":36.112112,"longitude":-115.171554,"stars":4.0,"review_count":26,"price_range":"2"},"60954":{"name":"Party USA","latitude":36.1585865,"longitude":-115.0619119,"stars":2.0,"review_count":6,"price_range":null},"60955":{"name":"Boteco","latitude":36.0164931,"longitude":-115.1170689,"stars":4.0,"review_count":112,"price_range":"2"},"60969":{"name":"Just Nails & Spa","latitude":36.1284289,"longitude":-115.314551,"stars":4.5,"review_count":136,"price_range":"2"},"60972":{"name":"3 Kings Hookah Lounge","latitude":36.091166,"longitude":-115.298269,"stars":2.0,"review_count":13,"price_range":"4"},"60973":{"name":"Grand Canyon Dental","latitude":36.113471,"longitude":-115.3109991,"stars":3.5,"review_count":4,"price_range":null},"60974":{"name":"Bad Ass Coffee of Hawaii Truck","latitude":36.1148054,"longitude":-115.2778317,"stars":4.0,"review_count":7,"price_range":"1"},"60980":{"name":"Piff the Magic Dragon","latitude":36.1162836724,"longitude":-115.171980747,"stars":4.5,"review_count":69,"price_range":"2"},"60989":{"name":"CORT Furniture Rental & Clearance Center","latitude":36.0681136,"longitude":-115.2561815,"stars":4.0,"review_count":16,"price_range":"2"},"60990":{"name":"Jamborcic Internal Medical Clinic","latitude":36.05842,"longitude":-115.2721056,"stars":1.5,"review_count":6,"price_range":null},"60991":{"name":"Sun Source Energy","latitude":36.062724,"longitude":-115.2536602,"stars":5.0,"review_count":14,"price_range":null},"61007":{"name":"Sound Tech - Car Audio","latitude":36.1585086,"longitude":-115.0754739,"stars":2.0,"review_count":4,"price_range":null},"61021":{"name":"The WoW Factor!","latitude":36.1148054,"longitude":-115.2778317,"stars":5.0,"review_count":6,"price_range":"2"},"61039":{"name":"Calvary Chapel Lone Mountain","latitude":36.2373091,"longitude":-115.233238,"stars":4.0,"review_count":5,"price_range":null},"61057":{"name":"Priority Plumbing & Air","latitude":36.0133313,"longitude":-115.2247748,"stars":2.5,"review_count":3,"price_range":null},"61058":{"name":"Dean O Hair","latitude":36.12591,"longitude":-115.23117,"stars":5.0,"review_count":45,"price_range":"1"},"61067":{"name":"RadioShack","latitude":36.1580758,"longitude":-115.2001752,"stars":2.0,"review_count":6,"price_range":"2"},"61071":{"name":"Social House","latitude":36.108713,"longitude":-115.173192,"stars":4.0,"review_count":580,"price_range":"3"},"61088":{"name":"Lenzen Contracting","latitude":36.2737596,"longitude":-115.2528814,"stars":5.0,"review_count":7,"price_range":null},"61107":{"name":"Napa Valley Pottery & Floral","latitude":36.1586615,"longitude":-115.1956318,"stars":4.0,"review_count":10,"price_range":"2"},"61108":{"name":"G Johnson Electric","latitude":36.2263489,"longitude":-115.2100832,"stars":5.0,"review_count":12,"price_range":null},"61111":{"name":"Nevada Aquatics","latitude":36.1988542,"longitude":-115.2659777,"stars":5.0,"review_count":3,"price_range":null},"61113":{"name":"UMC Quick Care - Summerlin","latitude":36.1975872,"longitude":-115.2608378,"stars":2.0,"review_count":87,"price_range":null},"61115":{"name":"Nevada Chicken Cafe","latitude":36.0636453,"longitude":-115.2520481,"stars":3.5,"review_count":335,"price_range":"2"},"61127":{"name":"Absolute Balance","latitude":36.0772068,"longitude":-115.2986003,"stars":5.0,"review_count":3,"price_range":null},"61146":{"name":"DENNIS Uniform - Las Vegas","latitude":36.0945914,"longitude":-115.1992152,"stars":3.0,"review_count":4,"price_range":"2"},"61155":{"name":"China Joy","latitude":36.011597,"longitude":-115.137808,"stars":2.5,"review_count":27,"price_range":"1"},"61157":{"name":"Husker Automotive","latitude":36.0137673,"longitude":-115.1515758,"stars":2.5,"review_count":34,"price_range":null},"61188":{"name":"Sunset Clinic","latitude":36.2815921,"longitude":-115.266732,"stars":2.5,"review_count":18,"price_range":null},"61190":{"name":"Get Ready Agency","latitude":36.0810608418,"longitude":-115.241169485,"stars":5.0,"review_count":6,"price_range":"2"},"61194":{"name":"Club Tour Vegas","latitude":36.149751,"longitude":-115.0762536,"stars":4.0,"review_count":66,"price_range":"1"},"61214":{"name":"Mark Brandon - State Farm Insurance Agent","latitude":36.1160295,"longitude":-115.2962656,"stars":3.5,"review_count":6,"price_range":null},"61216":{"name":"Organelle Salon Spa","latitude":36.1122769,"longitude":-115.2782504,"stars":4.0,"review_count":22,"price_range":"2"},"61231":{"name":"Smith's Food & Drug Centers","latitude":36.2405918401,"longitude":-115.230383208,"stars":4.0,"review_count":10,"price_range":"1"},"61257":{"name":"Walmart Supercenter","latitude":36.0803201,"longitude":-115.1217779,"stars":2.5,"review_count":100,"price_range":"1"},"61279":{"name":"Hunter's Edge","latitude":36.0051716,"longitude":-115.2846113,"stars":5.0,"review_count":4,"price_range":null},"61280":{"name":"Bonito Michoacan","latitude":36.122214,"longitude":-115.2088779,"stars":4.0,"review_count":688,"price_range":"2"},"61282":{"name":"Cameron & Crestone Hoa","latitude":36.0096597,"longitude":-115.2960604,"stars":2.5,"review_count":3,"price_range":null},"61285":{"name":"Armani Exchange","latitude":36.1630111,"longitude":-115.1583136,"stars":2.5,"review_count":7,"price_range":"2"},"61288":{"name":"Charlotte Russe Outlet","latitude":36.1632104,"longitude":-115.1588086,"stars":3.5,"review_count":4,"price_range":"2"},"61301":{"name":"Fast Bucks","latitude":36.220007,"longitude":-115.276108,"stars":2.5,"review_count":3,"price_range":null},"61303":{"name":"Moxie Pest Control - Las Vegas","latitude":36.0929124,"longitude":-115.2047907,"stars":4.0,"review_count":56,"price_range":null},"61306":{"name":"Sin City Thai Restaurant","latitude":36.0725097656,"longitude":-115.20690155,"stars":3.5,"review_count":114,"price_range":"1"},"61313":{"name":"EXPRESS","latitude":36.1726548,"longitude":-115.1965118,"stars":4.5,"review_count":3,"price_range":"2"},"61316":{"name":"Las Vegas Event Photography","latitude":36.2878575,"longitude":-115.2905683,"stars":5.0,"review_count":5,"price_range":null},"61317":{"name":"Dr Mark Rookhuyzen DC C Ad","latitude":36.0161317,"longitude":-115.1195258,"stars":5.0,"review_count":6,"price_range":null},"61318":{"name":"Marias Taco Shop","latitude":36.055748,"longitude":-115.1170812,"stars":3.5,"review_count":32,"price_range":"1"},"61319":{"name":"Doctor Rooter Plumbing","latitude":36.0357492,"longitude":-115.1533426,"stars":4.0,"review_count":5,"price_range":null},"61320":{"name":"Sweet Nails","latitude":35.9981553,"longitude":-115.2054401,"stars":3.5,"review_count":143,"price_range":"2"},"61322":{"name":"High Flyin' Entertainment","latitude":36.0335281449,"longitude":-115.161582346,"stars":4.5,"review_count":53,"price_range":null},"61325":{"name":"Mirror Mirror Salon","latitude":36.1151049,"longitude":-115.1204519,"stars":4.0,"review_count":5,"price_range":null},"61326":{"name":"Advanced Heart & Vascular Specialists","latitude":36.108625,"longitude":-115.118073,"stars":2.0,"review_count":10,"price_range":null},"61367":{"name":"Shoe Mart","latitude":36.11274,"longitude":-115.21134,"stars":2.5,"review_count":3,"price_range":"2"},"61368":{"name":"VIP Smoke Shop","latitude":36.1153115,"longitude":-115.2807759,"stars":3.0,"review_count":12,"price_range":"1"},"61371":{"name":"Honest Tech Carpet Care","latitude":36.1132,"longitude":-115.2754,"stars":1.0,"review_count":10,"price_range":null},"61401":{"name":"Wendy's","latitude":36.1449223,"longitude":-115.2001708,"stars":2.0,"review_count":19,"price_range":"1"},"61404":{"name":"Jersey's Bar & Grill","latitude":36.1465042,"longitude":-115.2072072,"stars":4.0,"review_count":5,"price_range":"1"},"61435":{"name":"Armaan Taste of India","latitude":36.0107844,"longitude":-115.1350669,"stars":4.0,"review_count":55,"price_range":"2"},"61460":{"name":"Taqueria La Casa Del Pastor","latitude":36.0995058,"longitude":-115.2222678,"stars":3.5,"review_count":44,"price_range":"1"},"61481":{"name":"Natural Twenty Gaming","latitude":36.0956763,"longitude":-115.2982806,"stars":4.5,"review_count":11,"price_range":"1"},"61485":{"name":"Breakfast & Grill Cafe","latitude":36.1067927,"longitude":-115.1364724,"stars":4.0,"review_count":81,"price_range":"1"},"61492":{"name":"Edward C Spoon Jr., MD FACOG FACS","latitude":36.1773745,"longitude":-115.2606684,"stars":4.5,"review_count":53,"price_range":null},"61498":{"name":"Gonzales Xavier","latitude":36.1992633737,"longitude":-115.278232111,"stars":5.0,"review_count":6,"price_range":null},"61500":{"name":"China Roll","latitude":36.128593,"longitude":-115.0643775,"stars":4.0,"review_count":51,"price_range":"1"},"61514":{"name":"Champion Gourmet","latitude":36.125587,"longitude":-115.211199,"stars":4.0,"review_count":11,"price_range":"1"},"61516":{"name":"Magnifique' Stitches","latitude":36.1551554,"longitude":-115.2134861,"stars":5.0,"review_count":45,"price_range":"2"},"61517":{"name":"The Graphic Edge\/The Jock Shop","latitude":36.1439331,"longitude":-115.2206938,"stars":4.0,"review_count":16,"price_range":"2"},"61540":{"name":"Great Clips","latitude":36.0072306,"longitude":-115.11531,"stars":3.5,"review_count":24,"price_range":"1"},"61541":{"name":"Progress Residential","latitude":36.0690979,"longitude":-115.2764524,"stars":1.5,"review_count":22,"price_range":null},"61542":{"name":"Dollar General Market","latitude":36.0856691,"longitude":-115.2434497,"stars":2.5,"review_count":19,"price_range":"2"},"61554":{"name":"Andre's Bistro & Bar","latitude":36.077209,"longitude":-115.298601,"stars":4.0,"review_count":277,"price_range":"2"},"61555":{"name":"Isla Grille Filipino Cuisine","latitude":36.0762741541,"longitude":-115.297996961,"stars":4.0,"review_count":22,"price_range":"1"},"61557":{"name":"Stir Krazy Mongolian Grill","latitude":36.10259,"longitude":-115.136559,"stars":5.0,"review_count":17,"price_range":"2"},"61560":{"name":"Sweetie Eyebrow Threading & Henna Art","latitude":36.099811,"longitude":-115.117925,"stars":5.0,"review_count":234,"price_range":"1"},"61561":{"name":"Flight Deck Bar & Grill","latitude":36.0669136,"longitude":-115.1708484,"stars":4.0,"review_count":14,"price_range":"2"},"61564":{"name":"Berns Music School","latitude":36.0944983,"longitude":-115.1190599,"stars":4.0,"review_count":4,"price_range":null},"61576":{"name":"zTailors","latitude":36.1697516609,"longitude":-115.139902041,"stars":3.0,"review_count":3,"price_range":null},"61587":{"name":"I Love My Rates Insurance","latitude":36.14613,"longitude":-115.179814,"stars":5.0,"review_count":18,"price_range":null},"61591":{"name":"XO Liquor","latitude":36.158546,"longitude":-115.089837,"stars":5.0,"review_count":8,"price_range":"2"},"61593":{"name":"U.S. Bank","latitude":36.158184,"longitude":-115.045058,"stars":2.5,"review_count":3,"price_range":null},"61610":{"name":"Next Step Medical","latitude":36.0780685731,"longitude":-115.278916061,"stars":3.5,"review_count":3,"price_range":"3"},"61616":{"name":"Autozone","latitude":36.1867928,"longitude":-115.1540634,"stars":3.5,"review_count":3,"price_range":null},"61629":{"name":"Fletcher View Campgrounds","latitude":36.265868,"longitude":-115.617571,"stars":3.5,"review_count":9,"price_range":null},"61630":{"name":"Jeffs Auto & Truck Repair","latitude":36.1462673,"longitude":-115.1829873,"stars":2.5,"review_count":4,"price_range":null},"61631":{"name":"Las Vegas Auto Spa","latitude":36.1309611366,"longitude":-115.083484831,"stars":2.5,"review_count":19,"price_range":null},"61647":{"name":"Thai Room","latitude":36.0989953,"longitude":-115.1025713,"stars":4.0,"review_count":169,"price_range":"2"},"61649":{"name":"Green Florist","latitude":36.099367,"longitude":-115.1000216,"stars":1.5,"review_count":8,"price_range":"3"},"61659":{"name":"Mr Fix It Handyman Services","latitude":36.0563775,"longitude":-115.2659777,"stars":5.0,"review_count":4,"price_range":null},"61660":{"name":"Carpet Monkeys","latitude":36.0563775,"longitude":-115.2659777,"stars":5.0,"review_count":493,"price_range":null},"61669":{"name":"Superstars On Stage","latitude":36.1111846,"longitude":-115.1707331,"stars":4.0,"review_count":9,"price_range":null},"61671":{"name":"La Perla","latitude":36.1186729467,"longitude":-115.173506923,"stars":5.0,"review_count":9,"price_range":"4"},"61675":{"name":"Harmon Hills","latitude":36.108914,"longitude":-115.055244,"stars":1.0,"review_count":15,"price_range":null},"61694":{"name":"The Westin Las Vegas Hotel & Spa","latitude":36.115198,"longitude":-115.165729,"stars":3.0,"review_count":626,"price_range":"2"},"61695":{"name":"Crazy Legs","latitude":36.1692317,"longitude":-115.1406962,"stars":1.5,"review_count":3,"price_range":"3"},"61696":{"name":"Sidebar","latitude":36.1718195,"longitude":-115.1423041,"stars":5.0,"review_count":4,"price_range":"1"},"61704":{"name":"Timothy D Francis, DC","latitude":36.1945983,"longitude":-115.2566462,"stars":4.5,"review_count":9,"price_range":null},"61717":{"name":"AutoZone","latitude":36.2840489,"longitude":-115.2709555,"stars":4.0,"review_count":30,"price_range":null},"61723":{"name":"Desert City Realty - Las Vegas Realtor Joe Radosta","latitude":36.010304,"longitude":-115.136413,"stars":5.0,"review_count":26,"price_range":null},"61725":{"name":"Adcendance","latitude":36.10355,"longitude":-115.29374,"stars":5.0,"review_count":3,"price_range":null},"61727":{"name":"Total Comfort","latitude":36.0468201,"longitude":-115.2572393,"stars":5.0,"review_count":9,"price_range":null},"61734":{"name":"Rotary Evolution","latitude":36.0972477,"longitude":-115.1988189,"stars":5.0,"review_count":4,"price_range":null},"61737":{"name":"Wells Fargo Bank","latitude":36.16113,"longitude":-115.3324189,"stars":2.5,"review_count":23,"price_range":null},"61785":{"name":"Trend Beauty Salon","latitude":36.1257952,"longitude":-115.2260955,"stars":4.5,"review_count":9,"price_range":"2"},"61842":{"name":"Jessica O'Brien - New Home Resource","latitude":36.1427455,"longitude":-115.2821844,"stars":5.0,"review_count":9,"price_range":null},"61843":{"name":"Smart Tech Design","latitude":36.048208,"longitude":-115.24981,"stars":5.0,"review_count":4,"price_range":null},"61856":{"name":"Cadillac Ranch","latitude":36.089494,"longitude":-115.138026,"stars":2.5,"review_count":81,"price_range":"2"},"61857":{"name":"Tru Nightclub","latitude":36.115263,"longitude":-115.130036,"stars":3.0,"review_count":8,"price_range":"3"},"61858":{"name":"Motown Extreme","latitude":36.1689881,"longitude":-115.1404132,"stars":5.0,"review_count":21,"price_range":null},"61859":{"name":"Moore Family Dentistry","latitude":36.1427591,"longitude":-115.1351284,"stars":4.5,"review_count":7,"price_range":null},"61860":{"name":"Attorney David Mann, PC","latitude":36.1604679,"longitude":-115.1395152,"stars":1.0,"review_count":9,"price_range":null},"61861":{"name":"Hamada of Japan","latitude":36.1141972,"longitude":-115.1551142,"stars":3.0,"review_count":62,"price_range":"3"},"61895":{"name":"Versailles Senior Apartments","latitude":36.142006,"longitude":-115.188089,"stars":5.0,"review_count":3,"price_range":null},"61903":{"name":"Recharge Spa","latitude":36.1156021,"longitude":-115.1982793,"stars":3.0,"review_count":8,"price_range":"3"},"61905":{"name":"Slush Bar","latitude":36.115014579,"longitude":-115.172435177,"stars":4.0,"review_count":9,"price_range":"2"},"61909":{"name":"OTM Fight Shop","latitude":36.125948,"longitude":-115.189491,"stars":4.5,"review_count":22,"price_range":"2"},"61926":{"name":"My Window Cleaners","latitude":36.2169294,"longitude":-115.2336709,"stars":5.0,"review_count":7,"price_range":null},"61941":{"name":"RadioShack","latitude":36.039992118,"longitude":-115.19627573,"stars":3.5,"review_count":5,"price_range":"2"},"61958":{"name":"The Beauty Box","latitude":36.2794672,"longitude":-115.2080128,"stars":5.0,"review_count":6,"price_range":null},"61981":{"name":"LV Nails & Spa 2","latitude":36.0597279,"longitude":-115.277276,"stars":4.5,"review_count":72,"price_range":"2"},"61982":{"name":"Advanced Training Institute","latitude":36.0960603,"longitude":-115.2065181,"stars":2.5,"review_count":9,"price_range":null},"61997":{"name":"The Lodge at Shelbourne","latitude":36.03671,"longitude":-115.24285,"stars":3.0,"review_count":89,"price_range":"2"},"61998":{"name":"Subway","latitude":36.0553391,"longitude":-115.2259983,"stars":3.5,"review_count":12,"price_range":"1"},"61999":{"name":"Townsley Portraits","latitude":36.0809667,"longitude":-115.2244853,"stars":4.5,"review_count":261,"price_range":null},"62024":{"name":"Einstein Bros","latitude":36.1432476,"longitude":-115.2063054,"stars":3.5,"review_count":78,"price_range":"1"},"62061":{"name":"Dedez Makeup","latitude":36.0612353,"longitude":-115.2896852,"stars":5.0,"review_count":7,"price_range":null},"62067":{"name":"Nevada Nails Spa & Lash Studio","latitude":36.1007887,"longitude":-115.1031348,"stars":4.0,"review_count":110,"price_range":"2"},"62072":{"name":"Renew Medical Spa","latitude":36.2050496,"longitude":-115.2460194,"stars":4.0,"review_count":4,"price_range":"2"},"62075":{"name":"Nevada Rehabilitation Centers","latitude":36.2125601,"longitude":-115.2500368,"stars":5.0,"review_count":3,"price_range":null},"62077":{"name":"China Joe's","latitude":36.115521,"longitude":-115.134565,"stars":3.0,"review_count":66,"price_range":"1"},"62078":{"name":"Summerlin Pest Control","latitude":36.1100428,"longitude":-115.3667218,"stars":5.0,"review_count":10,"price_range":null},"62079":{"name":"Las Vegas Metropolitan Police Department","latitude":36.0845313275,"longitude":-115.173798903,"stars":2.5,"review_count":7,"price_range":null},"62080":{"name":"Corporate Graffiti","latitude":36.0597119,"longitude":-115.1553345,"stars":4.0,"review_count":4,"price_range":null},"62082":{"name":"Neros","latitude":36.1162194,"longitude":-115.1745719,"stars":3.5,"review_count":60,"price_range":"3"},"62083":{"name":"Officine Panerai","latitude":36.1177807,"longitude":-115.1729506,"stars":4.0,"review_count":4,"price_range":"4"},"62084":{"name":"Moo Woo Korean BBQ","latitude":36.2660802,"longitude":-115.2586289,"stars":4.5,"review_count":293,"price_range":"2"},"62085":{"name":"Quiznos","latitude":36.2777966,"longitude":-115.2882498,"stars":3.0,"review_count":28,"price_range":"1"},"62087":{"name":"Adore Organic Innovation","latitude":36.1275236,"longitude":-115.1715003,"stars":1.5,"review_count":17,"price_range":"4"},"62088":{"name":"T-Mobile","latitude":36.2813137,"longitude":-115.2871543,"stars":2.0,"review_count":30,"price_range":"2"},"62140":{"name":"Chinatown Express Restaurant","latitude":36.1254312,"longitude":-115.1969657,"stars":3.0,"review_count":7,"price_range":"1"},"62156":{"name":"5 Star Auto Repair","latitude":36.144500907,"longitude":-115.233269988,"stars":5.0,"review_count":65,"price_range":null},"62173":{"name":"Taco Bell","latitude":36.3074953,"longitude":-115.2791233,"stars":2.0,"review_count":28,"price_range":"1"},"62176":{"name":"Dae Jang Keum Korean BBQ & Tofu Restaurant","latitude":36.1258698833,"longitude":-115.192326648,"stars":3.0,"review_count":420,"price_range":"2"},"62183":{"name":"Free Green Window Cleaning","latitude":36.0765176,"longitude":-115.1533426,"stars":5.0,"review_count":19,"price_range":null},"62185":{"name":"Frontier Airlines","latitude":36.086407,"longitude":-115.149425,"stars":1.5,"review_count":190,"price_range":null},"62202":{"name":"Beijing Massage","latitude":36.1257982,"longitude":-115.2262122,"stars":1.0,"review_count":3,"price_range":"2"},"62205":{"name":"Nevada School Of Insurance","latitude":36.1259316,"longitude":-115.1836972,"stars":3.0,"review_count":4,"price_range":null},"62207":{"name":"Walgreens","latitude":36.1956044,"longitude":-115.2595875,"stars":3.0,"review_count":43,"price_range":"2"},"62209":{"name":"Clark County Credit Union","latitude":36.2082299778,"longitude":-115.250687821,"stars":3.5,"review_count":28,"price_range":null},"62238":{"name":"Vegas Golden Knights","latitude":36.1035198735,"longitude":-115.17460797,"stars":4.5,"review_count":17,"price_range":null},"62241":{"name":"OMNIA Nightclub","latitude":36.1173025254,"longitude":-115.174176233,"stars":3.0,"review_count":1030,"price_range":"3"},"62242":{"name":"Monte Carlo Poker Room","latitude":36.1051256,"longitude":-115.1752326,"stars":4.0,"review_count":10,"price_range":"3"},"62243":{"name":"Domino's Pizza","latitude":36.143852316,"longitude":-115.1351314,"stars":2.0,"review_count":34,"price_range":"1"},"62253":{"name":"LV Nails By Christine","latitude":36.1577682063,"longitude":-115.286027912,"stars":2.5,"review_count":14,"price_range":"3"},"62254":{"name":"Quest Diagnostics","latitude":36.1465857401,"longitude":-115.300820627,"stars":2.5,"review_count":36,"price_range":null},"62256":{"name":"Lori Ballen - Keller Williams Realty","latitude":36.1463566,"longitude":-115.3009921,"stars":4.5,"review_count":10,"price_range":null},"62259":{"name":"Post2Post Mail & Ship","latitude":36.0711592,"longitude":-115.2073851,"stars":5.0,"review_count":3,"price_range":null},"62261":{"name":"Citrus Plastics & Signs","latitude":36.0825514,"longitude":-115.1854467,"stars":2.0,"review_count":7,"price_range":null},"62263":{"name":"Top Fleet Limo","latitude":36.1611509,"longitude":-115.266982,"stars":5.0,"review_count":3,"price_range":null},"62283":{"name":"The Cuppa","latitude":36.1488913095,"longitude":-115.333363777,"stars":4.5,"review_count":54,"price_range":"1"},"62287":{"name":"Emerge Beauty","latitude":36.1576031,"longitude":-115.2860645,"stars":5.0,"review_count":4,"price_range":"2"},"62288":{"name":"Denny's","latitude":36.1207056,"longitude":-115.1717867,"stars":3.0,"review_count":38,"price_range":"2"},"62290":{"name":"Longchamp Las Vegas","latitude":36.1174528,"longitude":-115.1766881,"stars":3.5,"review_count":13,"price_range":"3"},"62291":{"name":"Dior Boutique","latitude":36.1259634638,"longitude":-115.166834856,"stars":4.0,"review_count":9,"price_range":"4"},"62298":{"name":"House of Smokes & Gifts","latitude":36.010784,"longitude":-115.135068,"stars":5.0,"review_count":72,"price_range":"2"},"62299":{"name":"Ballstaedt Law Firm","latitude":36.0161317,"longitude":-115.1195258,"stars":4.0,"review_count":12,"price_range":null},"62309":{"name":"A Fine Affair Events","latitude":36.0357492,"longitude":-115.1533426,"stars":4.0,"review_count":4,"price_range":null},"62310":{"name":"Double Y Ranch","latitude":36.04367,"longitude":-115.155029,"stars":5.0,"review_count":4,"price_range":null},"62311":{"name":"The Salvation Army Family Store & Donation Center","latitude":36.127629,"longitude":-115.0802803,"stars":3.0,"review_count":4,"price_range":"2"},"62313":{"name":"Crossland Economy Studios - Las Vegas","latitude":36.1285837,"longitude":-115.0826289,"stars":2.0,"review_count":17,"price_range":"1"},"62314":{"name":"Ori'Zaba's Scratch Mexican Grill","latitude":36.0565468623,"longitude":-115.278323867,"stars":3.0,"review_count":78,"price_range":"1"},"62317":{"name":"A Printer 4 U","latitude":36.1590078028,"longitude":-115.251689819,"stars":5.0,"review_count":3,"price_range":null},"62333":{"name":"The Magic Shop","latitude":36.132369,"longitude":-115.1916549,"stars":4.5,"review_count":4,"price_range":"3"},"62334":{"name":"Tacos El Burrito Loco","latitude":36.1462859,"longitude":-115.190537,"stars":3.5,"review_count":25,"price_range":"1"},"62336":{"name":"Classic & Collectible Cars","latitude":36.1335068,"longitude":-115.1883506,"stars":3.5,"review_count":3,"price_range":null},"62337":{"name":"Winchell's Donut House","latitude":36.0574886,"longitude":-115.1494812,"stars":2.0,"review_count":8,"price_range":"1"},"62338":{"name":"Vegas Motorcars","latitude":36.057514,"longitude":-115.176218,"stars":4.0,"review_count":19,"price_range":null},"62339":{"name":"Burnley Dental Group","latitude":36.0957517,"longitude":-115.1183676,"stars":4.5,"review_count":9,"price_range":null},"62356":{"name":"Security Assessment Group LLC","latitude":36.0811842,"longitude":-115.2410835,"stars":5.0,"review_count":9,"price_range":null},"62358":{"name":"Desert Springs Dental Care","latitude":36.0862874,"longitude":-115.2261344,"stars":4.5,"review_count":36,"price_range":null},"62360":{"name":"Choice Sinclair","latitude":36.0417391605,"longitude":-115.243819293,"stars":2.5,"review_count":127,"price_range":null},"62365":{"name":"Gordon Biersch","latitude":36.175,"longitude":-115.136389,"stars":2.5,"review_count":3,"price_range":null},"62387":{"name":"Pick Your Poison Bake Shop","latitude":36.175,"longitude":-115.136389,"stars":4.5,"review_count":32,"price_range":"2"},"62406":{"name":"Walter Jacobson Elementary School","latitude":36.1635134,"longitude":-115.2747334,"stars":3.0,"review_count":3,"price_range":null},"62410":{"name":"Vegas Game Repair","latitude":36.032145,"longitude":-115.135813,"stars":3.5,"review_count":7,"price_range":null},"62412":{"name":"Red Rock Running Company","latitude":36.1223811,"longitude":-115.3247251,"stars":5.0,"review_count":6,"price_range":"3"},"62417":{"name":"P3 Studio","latitude":36.1094942795,"longitude":-115.173962213,"stars":4.0,"review_count":9,"price_range":"1"},"62419":{"name":"NYX Professional Makeup","latitude":36.1107593356,"longitude":-115.171601951,"stars":3.0,"review_count":4,"price_range":"1"},"62420":{"name":"Xavier Mortimer's Magical Dream","latitude":36.1096948,"longitude":-115.1701624,"stars":4.5,"review_count":144,"price_range":null},"62421":{"name":"Parlor Lounge","latitude":36.1212623703,"longitude":-115.174075179,"stars":3.0,"review_count":9,"price_range":"2"},"62424":{"name":"FlowRider","latitude":36.1096948,"longitude":-115.1701624,"stars":5.0,"review_count":3,"price_range":null},"62426":{"name":"Mirage Poker Room","latitude":36.1211789,"longitude":-115.1741843,"stars":3.5,"review_count":7,"price_range":null},"62427":{"name":"Virgil's Real Barbecue - Las Vegas","latitude":36.1176620311,"longitude":-115.170430133,"stars":3.5,"review_count":329,"price_range":"2"},"62459":{"name":"S S Audio","latitude":36.1261585,"longitude":-115.2125529,"stars":5.0,"review_count":6,"price_range":"2"},"62462":{"name":"Dreamers Bar & Grill","latitude":36.0410492,"longitude":-115.12081,"stars":4.0,"review_count":5,"price_range":null},"62463":{"name":"Water Heater Paramedics","latitude":36.2085091,"longitude":-115.3133908,"stars":5.0,"review_count":16,"price_range":null},"62470":{"name":"Rancho Adult Entertainment Center","latitude":36.2485471,"longitude":-115.239572,"stars":3.5,"review_count":3,"price_range":"2"},"62483":{"name":"Tia's Cafe","latitude":36.150798,"longitude":-115.2056,"stars":4.5,"review_count":12,"price_range":"1"},"62487":{"name":"Discount Auto Sales","latitude":36.0989012,"longitude":-115.1487518,"stars":3.0,"review_count":15,"price_range":null},"62488":{"name":"La Bocce","latitude":36.0577191,"longitude":-115.1582446,"stars":4.0,"review_count":130,"price_range":"1"},"62489":{"name":"Psychic Spa","latitude":36.0870194,"longitude":-115.119232,"stars":3.0,"review_count":24,"price_range":null},"62503":{"name":"Ensign Family Medicine","latitude":36.0836197,"longitude":-115.2989219,"stars":3.0,"review_count":37,"price_range":null},"62511":{"name":"Andale Fresh Food","latitude":36.0415486,"longitude":-115.1215536,"stars":4.5,"review_count":52,"price_range":"1"},"62512":{"name":"Samir Pancholi","latitude":36.0569607,"longitude":-115.2694043,"stars":4.5,"review_count":44,"price_range":null},"62513":{"name":"Millennium Dance Complex Las Vegas","latitude":36.0670268,"longitude":-115.2520395,"stars":4.0,"review_count":5,"price_range":null},"62515":{"name":"Posare Salon","latitude":36.2388004,"longitude":-115.2239984,"stars":4.0,"review_count":23,"price_range":"2"},"62516":{"name":"Master Nails","latitude":36.2386667,"longitude":-115.2081578,"stars":3.5,"review_count":22,"price_range":"2"},"62528":{"name":"Pro Tech Appliance Care","latitude":36.0765176,"longitude":-115.1533426,"stars":2.5,"review_count":3,"price_range":null},"62529":{"name":"circle k","latitude":36.0573733629,"longitude":-115.127923451,"stars":3.5,"review_count":3,"price_range":"1"},"62530":{"name":"Corcoran's Irish Pub","latitude":36.0816306995,"longitude":-115.146902923,"stars":2.5,"review_count":19,"price_range":"2"},"62531":{"name":"Merchandise Liquidators","latitude":36.069897,"longitude":-115.1267144,"stars":4.5,"review_count":56,"price_range":"1"},"62532":{"name":"Firehouse Subs","latitude":36.0819824,"longitude":-115.1196025,"stars":4.0,"review_count":102,"price_range":"1"},"62543":{"name":"AM Realty and Property Management","latitude":36.0810462,"longitude":-115.2426727,"stars":4.5,"review_count":13,"price_range":null},"62557":{"name":"Clever Chefs","latitude":36.1988542,"longitude":-115.2659777,"stars":4.5,"review_count":6,"price_range":null},"62565":{"name":"Feast Buffet","latitude":36.1442045,"longitude":-115.1743414,"stars":3.0,"review_count":223,"price_range":"1"},"62569":{"name":"Real Steemer","latitude":36.0765176,"longitude":-115.1533426,"stars":1.5,"review_count":37,"price_range":null},"62570":{"name":"Davis Funeral Home & Memorial Park","latitude":36.078321,"longitude":-115.11816,"stars":2.5,"review_count":13,"price_range":null},"62583":{"name":"The HideAway","latitude":36.220044527,"longitude":-115.21237421,"stars":4.0,"review_count":13,"price_range":"1"},"62585":{"name":"Grand Caf\u00e9","latitude":36.2500479399,"longitude":-115.245565235,"stars":2.0,"review_count":90,"price_range":"2"},"62586":{"name":"Sunshine Harmon Portraits","latitude":35.9706292,"longitude":-115.3074646,"stars":5.0,"review_count":3,"price_range":null},"62608":{"name":"Walmart","latitude":36.064703,"longitude":-115.248777,"stars":3.0,"review_count":58,"price_range":"1"},"62610":{"name":"Quick & Fast Dmv Services","latitude":36.1427366,"longitude":-115.2798587,"stars":3.0,"review_count":8,"price_range":null},"62612":{"name":"Pioneer Park","latitude":36.185951,"longitude":-115.254378,"stars":3.5,"review_count":3,"price_range":null},"62615":{"name":"The Thater Law Group","latitude":36.204099745,"longitude":-115.245582033,"stars":3.0,"review_count":9,"price_range":null},"62617":{"name":"7th Degree","latitude":36.1107323,"longitude":-115.1722365,"stars":3.5,"review_count":6,"price_range":"3"},"62621":{"name":"Burlesque the Show","latitude":36.128561,"longitude":-115.1711298,"stars":4.0,"review_count":4,"price_range":"1"},"62623":{"name":"Comme \u00c7a","latitude":36.1097544,"longitude":-115.1738726,"stars":3.5,"review_count":499,"price_range":"3"},"62630":{"name":"Smoke & Gift Shop","latitude":36.1208959,"longitude":-115.1514857,"stars":5.0,"review_count":3,"price_range":"1"},"62631":{"name":"Las Vegas Motor Speedway","latitude":36.272309,"longitude":-115.010342,"stars":4.0,"review_count":130,"price_range":null},"62632":{"name":"Hitchin' Post Rv Park & Motel","latitude":36.222222,"longitude":-115.083066,"stars":3.5,"review_count":34,"price_range":null},"62643":{"name":"Slick Bartender","latitude":36.0765176,"longitude":-115.1533426,"stars":5.0,"review_count":9,"price_range":null},"62644":{"name":"Sav-Mor Rent-A-Car","latitude":36.0765176,"longitude":-115.1533426,"stars":1.5,"review_count":6,"price_range":null},"62646":{"name":"Terra Rossa","latitude":36.1572810451,"longitude":-115.333614349,"stars":3.0,"review_count":103,"price_range":"3"},"62647":{"name":"Emerald Springs","latitude":36.1711928,"longitude":-115.0636246,"stars":2.5,"review_count":3,"price_range":null},"62665":{"name":"Bahama Buck's","latitude":36.0630388,"longitude":-115.2520521,"stars":4.0,"review_count":201,"price_range":"1"},"62666":{"name":"Chambers & Associates OBGYN and Gynecological Surgery, PLLC","latitude":36.0569632,"longitude":-115.2694043,"stars":4.0,"review_count":93,"price_range":null},"62681":{"name":"Crowbar","latitude":36.1141093227,"longitude":-115.241824688,"stars":4.5,"review_count":11,"price_range":"1"},"62683":{"name":"Pearle Vision","latitude":36.1011439,"longitude":-115.2274256,"stars":3.5,"review_count":20,"price_range":"2"},"62686":{"name":"Done And Done DMV Service","latitude":36.0726556,"longitude":-115.1161544,"stars":4.5,"review_count":36,"price_range":null},"62698":{"name":"Nguyen Law Firm","latitude":36.1256356,"longitude":-115.1897033,"stars":4.5,"review_count":10,"price_range":null},"62702":{"name":"Paint Party Night","latitude":36.1671943096,"longitude":-115.259190483,"stars":5.0,"review_count":32,"price_range":null},"62703":{"name":"Pasta Pirate","latitude":36.1727435,"longitude":-115.1455849,"stars":3.5,"review_count":29,"price_range":"2"},"62706":{"name":"Desert Valley Audiology","latitude":36.16495,"longitude":-115.1716523,"stars":5.0,"review_count":10,"price_range":null},"62709":{"name":"The Good Feet Store","latitude":36.1452628,"longitude":-115.1766418,"stars":2.0,"review_count":36,"price_range":null},"62719":{"name":"SKECHERS Retail","latitude":36.1107749,"longitude":-115.1721858,"stars":2.5,"review_count":3,"price_range":"3"},"62720":{"name":"Zombie Dogs Vegas","latitude":36.128561,"longitude":-115.1711298,"stars":5.0,"review_count":3,"price_range":"1"},"62723":{"name":"Wicked Spoon","latitude":36.10955,"longitude":-115.176155,"stars":3.5,"review_count":6446,"price_range":"3"},"62726":{"name":"Trail Canyon Trail","latitude":36.269965466,"longitude":-115.657767517,"stars":4.0,"review_count":12,"price_range":null},"62735":{"name":"Outside Inn","latitude":36.1573134,"longitude":-115.31363,"stars":3.0,"review_count":39,"price_range":"2"},"62754":{"name":"A1 Mobile Auto Repair","latitude":36.120781,"longitude":-115.072455,"stars":3.5,"review_count":3,"price_range":null},"62755":{"name":"Tacos LV","latitude":36.1688521404,"longitude":-115.20780014,"stars":4.0,"review_count":5,"price_range":"1"},"62759":{"name":"Majestic Eyebrow Threading","latitude":36.0993723,"longitude":-115.0999935,"stars":5.0,"review_count":125,"price_range":"1"},"62760":{"name":"El Toque Del Sabor","latitude":36.0997892,"longitude":-115.1161582,"stars":4.0,"review_count":58,"price_range":"2"},"62770":{"name":"The Vision Centers","latitude":36.1965552,"longitude":-115.2620409,"stars":3.0,"review_count":64,"price_range":"2"},"62776":{"name":"Bank of America","latitude":36.1973856,"longitude":-115.1263358,"stars":1.5,"review_count":9,"price_range":null},"62787":{"name":"Royal Cuisine","latitude":36.1486584,"longitude":-115.2098129,"stars":4.0,"review_count":5,"price_range":"2"},"62803":{"name":"Wells Fargo Bank","latitude":36.178820571,"longitude":-115.177773068,"stars":2.5,"review_count":8,"price_range":null},"62812":{"name":"Coronado Cafe","latitude":36.011634285,"longitude":-115.175891156,"stars":3.0,"review_count":465,"price_range":"1"},"62814":{"name":"O School Choppers","latitude":36.0857833,"longitude":-115.1904298,"stars":3.5,"review_count":7,"price_range":null},"62815":{"name":"The Volcano","latitude":36.121341,"longitude":-115.174102,"stars":4.0,"review_count":189,"price_range":"1"},"62825":{"name":"Palms Casino Resort","latitude":36.1144832,"longitude":-115.1948136,"stars":3.0,"review_count":1305,"price_range":"2"},"62840":{"name":"Advance Hair","latitude":36.1265640246,"longitude":-115.24199488,"stars":5.0,"review_count":4,"price_range":"2"},"62841":{"name":"Zhao Hot Pot Shanxi Gourmet Las Vegas","latitude":36.1277185,"longitude":-115.2240628,"stars":4.0,"review_count":4,"price_range":"2"},"62848":{"name":"Long John Silver's","latitude":36.0420645,"longitude":-115.121305,"stars":2.0,"review_count":16,"price_range":"1"},"62849":{"name":"Sin City Sushi","latitude":36.0211192,"longitude":-115.1190908,"stars":4.0,"review_count":233,"price_range":"2"},"62851":{"name":"Storage West Self Storage","latitude":36.0536839,"longitude":-115.119451,"stars":4.0,"review_count":10,"price_range":null},"62858":{"name":"Spelman Stephen W DDS, FAGD","latitude":36.1275496,"longitude":-115.314382,"stars":4.5,"review_count":27,"price_range":null},"62871":{"name":"Liquor Library LV","latitude":36.0848971,"longitude":-115.1486363,"stars":4.0,"review_count":17,"price_range":"2"},"62873":{"name":"Redesigning Surfaces","latitude":36.0805115156,"longitude":-115.11545173,"stars":5.0,"review_count":3,"price_range":null},"62907":{"name":"Tim & Julie Harris Real Estate Coaching","latitude":36.1421275,"longitude":-115.1369241,"stars":2.5,"review_count":22,"price_range":null},"62912":{"name":"Sidney Wilson Personal Training","latitude":36.0861742305,"longitude":-115.226145709,"stars":4.5,"review_count":57,"price_range":null},"62914":{"name":"Best Meat","latitude":36.2027670875,"longitude":-115.158089944,"stars":4.5,"review_count":8,"price_range":null},"62922":{"name":"Las Vegas Highrollers","latitude":36.128561,"longitude":-115.1711298,"stars":4.5,"review_count":4,"price_range":null},"62926":{"name":"Oh My Godard Galleries","latitude":36.1107901,"longitude":-115.1714113,"stars":3.5,"review_count":12,"price_range":"3"},"62933":{"name":"McDonald's","latitude":36.1961399,"longitude":-115.0270906,"stars":1.5,"review_count":19,"price_range":"1"},"62944":{"name":"Gold King Massage","latitude":36.1263568801,"longitude":-115.209910545,"stars":1.0,"review_count":9,"price_range":"2"},"62946":{"name":"Royal Flush","latitude":36.1697096,"longitude":-115.1236952,"stars":4.0,"review_count":8,"price_range":null},"62947":{"name":"XOXO, Jamelle","latitude":36.1697096,"longitude":-115.1236952,"stars":5.0,"review_count":6,"price_range":null},"62954":{"name":"DJ Bibingkahan","latitude":36.1410827,"longitude":-115.1364641,"stars":4.0,"review_count":79,"price_range":"1"},"62955":{"name":"Office Depot","latitude":36.130474,"longitude":-115.13795,"stars":3.0,"review_count":7,"price_range":"2"},"62956":{"name":"Gold Mine Bar & Grill","latitude":36.1179234185,"longitude":-115.160769756,"stars":2.5,"review_count":28,"price_range":"2"},"62957":{"name":"California Hotel & Casino","latitude":36.173216,"longitude":-115.144837,"stars":3.5,"review_count":418,"price_range":"2"},"62976":{"name":"8Bit Entertainment","latitude":36.128561,"longitude":-115.1711298,"stars":5.0,"review_count":11,"price_range":null},"62977":{"name":"Trent Carlini:  One Night With You","latitude":36.128561,"longitude":-115.1711298,"stars":3.0,"review_count":11,"price_range":null},"62978":{"name":"Express","latitude":36.1183949,"longitude":-115.1729418,"stars":4.0,"review_count":19,"price_range":"2"},"62979":{"name":"Art Of Venice","latitude":36.1226036,"longitude":-115.1710908,"stars":3.0,"review_count":7,"price_range":"3"},"62982":{"name":"Turtlehead Peak","latitude":36.1110111,"longitude":-115.4493283,"stars":4.5,"review_count":48,"price_range":null},"62983":{"name":"Pure Dental","latitude":36.1123296,"longitude":-115.2416502,"stars":3.0,"review_count":4,"price_range":null},"63002":{"name":"Michaels","latitude":36.1947356,"longitude":-115.2519494,"stars":3.5,"review_count":51,"price_range":"2"},"63003":{"name":"Hike This!","latitude":36.1973944,"longitude":-115.2579239,"stars":5.0,"review_count":10,"price_range":null},"63004":{"name":"Best Mattress Liquidation Center","latitude":36.1595937739,"longitude":-115.244074941,"stars":4.5,"review_count":51,"price_range":"2"},"63029":{"name":"Winchell's Donut House","latitude":36.0559407,"longitude":-115.2680615,"stars":4.0,"review_count":43,"price_range":"1"},"63031":{"name":"AAA Resume & Writing Service","latitude":36.1431754,"longitude":-115.237284,"stars":3.5,"review_count":22,"price_range":null},"63033":{"name":"Volvo of Las Vegas","latitude":36.142735,"longitude":-115.258942,"stars":4.0,"review_count":121,"price_range":null},"63034":{"name":"POTs","latitude":36.1520101,"longitude":-115.2437045,"stars":5.0,"review_count":98,"price_range":"1"},"63038":{"name":"Sakura Japanese Cuisine","latitude":36.1271919,"longitude":-115.2414116,"stars":4.0,"review_count":25,"price_range":"1"},"63039":{"name":"Sin City Tinting & Alarms","latitude":36.1262474,"longitude":-115.2423292,"stars":4.0,"review_count":5,"price_range":null},"63040":{"name":"Raw Food Express","latitude":36.0947119,"longitude":-115.2976559,"stars":4.5,"review_count":50,"price_range":"2"},"63041":{"name":"Jiffy Smog","latitude":36.1226133947,"longitude":-115.137761154,"stars":2.0,"review_count":19,"price_range":null},"63042":{"name":"Las Vegas National Golf Club","latitude":36.128617462,"longitude":-115.125222373,"stars":3.5,"review_count":64,"price_range":null},"63043":{"name":"Morton's The Steakhouse","latitude":36.114842971,"longitude":-115.15319556,"stars":4.0,"review_count":283,"price_range":"4"},"63074":{"name":"Pier 1 Imports","latitude":36.0102586735,"longitude":-115.119996602,"stars":4.0,"review_count":11,"price_range":"2"},"63081":{"name":"Vera Bradley Outlet","latitude":36.0539587,"longitude":-115.1695624,"stars":3.5,"review_count":9,"price_range":"2"},"63084":{"name":"Boot Barn","latitude":36.146514,"longitude":-115.335496,"stars":4.0,"review_count":16,"price_range":"3"},"63089":{"name":"Souls Without Filters","latitude":36.0563775,"longitude":-115.2659777,"stars":5.0,"review_count":4,"price_range":null},"63094":{"name":"Allegiant Appliance Services","latitude":36.2085091,"longitude":-115.3133908,"stars":2.0,"review_count":4,"price_range":null},"63096":{"name":"NEA Dentistry","latitude":36.1906967,"longitude":-115.3034449,"stars":5.0,"review_count":27,"price_range":null},"63097":{"name":"Las Vegas Indoor Soccer","latitude":36.186442,"longitude":-115.284795,"stars":3.5,"review_count":42,"price_range":null},"63106":{"name":"Crispy Town","latitude":36.1182191,"longitude":-115.13590929,"stars":2.5,"review_count":27,"price_range":"1"},"63107":{"name":"Kay Jewelers","latitude":36.0681543,"longitude":-115.174899,"stars":2.5,"review_count":21,"price_range":"3"},"63127":{"name":"Ritzy Rags Designer Resale Boutique","latitude":36.1431042,"longitude":-115.2419443,"stars":3.0,"review_count":44,"price_range":"3"},"63134":{"name":"Dawn Cleaners","latitude":36.2378,"longitude":-115.209166,"stars":3.0,"review_count":4,"price_range":"1"},"63142":{"name":"A1 Mobile Catering","latitude":36.4303079,"longitude":-115.5207358,"stars":4.0,"review_count":4,"price_range":null},"63155":{"name":"Pinoy Pinay Filipino Restaurant","latitude":36.145433,"longitude":-115.1360328,"stars":3.5,"review_count":110,"price_range":"1"},"63156":{"name":"Nancy Kim - State Farm Insurance Agent","latitude":36.1446533,"longitude":-115.154035,"stars":4.0,"review_count":20,"price_range":null},"63158":{"name":"Swim-In Pool Supply","latitude":36.1555104,"longitude":-115.1537946,"stars":4.0,"review_count":8,"price_range":"2"},"63172":{"name":"Slot Car City Raceway and Hobbies","latitude":36.1472,"longitude":-115.1892,"stars":3.5,"review_count":3,"price_range":null},"63173":{"name":"America's Mart","latitude":35.99975,"longitude":-115.127555,"stars":3.5,"review_count":35,"price_range":"1"},"63186":{"name":"Shaolin Tai Chi Cultural Center","latitude":36.020108,"longitude":-115.1167735,"stars":4.0,"review_count":9,"price_range":null},"63195":{"name":"The Spa At Mandarin Oriental","latitude":36.1059694718,"longitude":-115.17465055,"stars":4.5,"review_count":128,"price_range":"4"},"63199":{"name":"Juice Express","latitude":36.0854286,"longitude":-115.149927,"stars":3.0,"review_count":13,"price_range":"1"},"63202":{"name":"Palm South Jones Mortuary","latitude":36.1527534,"longitude":-115.2254323,"stars":3.0,"review_count":6,"price_range":null},"63204":{"name":"Old Republic Title Company","latitude":36.1436003,"longitude":-115.290186,"stars":3.0,"review_count":5,"price_range":null},"63205":{"name":"Fatburger","latitude":36.2418051,"longitude":-115.2353127,"stars":2.5,"review_count":59,"price_range":"2"},"63220":{"name":"BJ's Restaurant & Brewhouse","latitude":36.159552,"longitude":-115.331914,"stars":4.0,"review_count":572,"price_range":"2"},"63225":{"name":"Eagle Home Appraisal","latitude":36.1700354,"longitude":-115.2236054,"stars":5.0,"review_count":6,"price_range":null},"63234":{"name":"International Plantworks","latitude":36.0901921,"longitude":-115.1892579,"stars":4.5,"review_count":11,"price_range":"2"},"63235":{"name":"All Star Maintenance","latitude":36.2372859699,"longitude":-115.252609625,"stars":3.5,"review_count":6,"price_range":null},"63236":{"name":"Academy Glass Company","latitude":36.0978183,"longitude":-115.1986423,"stars":5.0,"review_count":3,"price_range":null},"63237":{"name":"Amazing Healing Waters","latitude":36.0877475,"longitude":-115.2951129,"stars":4.0,"review_count":13,"price_range":"2"},"63243":{"name":"Lemon","latitude":36.1573584,"longitude":-115.2764889,"stars":5.0,"review_count":18,"price_range":null},"63244":{"name":"Roberto's Taco Shop","latitude":36.158356,"longitude":-115.292372,"stars":3.0,"review_count":61,"price_range":"1"},"63245":{"name":"Red Ribbon Bakeshop","latitude":36.1459755,"longitude":-115.3009363,"stars":3.5,"review_count":43,"price_range":"2"},"63249":{"name":"David M Light, DC","latitude":36.2193261,"longitude":-115.3257738,"stars":5.0,"review_count":25,"price_range":null},"63285":{"name":"Rush Lounge","latitude":36.1701533,"longitude":-115.144871,"stars":3.5,"review_count":24,"price_range":"2"},"63327":{"name":"Gerardo's Tacos","latitude":36.2635740682,"longitude":-115.251225356,"stars":4.5,"review_count":51,"price_range":"1"},"63346":{"name":"USA Auto Service","latitude":36.1016703,"longitude":-115.101642,"stars":4.0,"review_count":80,"price_range":null},"63348":{"name":"Toscana Villas","latitude":36.1022659249,"longitude":-115.115573891,"stars":1.0,"review_count":5,"price_range":null},"63367":{"name":"Las Vegas Coin Laundry","latitude":36.128647,"longitude":-115.064608,"stars":3.0,"review_count":8,"price_range":"2"},"63368":{"name":"A Shampoochies","latitude":36.128593,"longitude":-115.0643775,"stars":4.0,"review_count":16,"price_range":null},"63375":{"name":"Checker's","latitude":36.057182,"longitude":-115.278528,"stars":2.0,"review_count":76,"price_range":"1"},"63377":{"name":"Team Kaizen","latitude":36.0565983,"longitude":-115.2783493,"stars":5.0,"review_count":6,"price_range":null},"63382":{"name":"Black Cat Costumes","latitude":36.1453227,"longitude":-115.2412796,"stars":4.0,"review_count":33,"price_range":"2"},"63383":{"name":"Dolphin HVAC","latitude":36.1524858,"longitude":-115.2093489,"stars":5.0,"review_count":5,"price_range":null},"63384":{"name":"CSN Library","latitude":36.1590869,"longitude":-115.2346858,"stars":4.0,"review_count":5,"price_range":null},"63387":{"name":"Namaste Skincare & Wellness","latitude":36.1389318,"longitude":-115.2245634,"stars":5.0,"review_count":10,"price_range":"2"},