{
  "205": {
    "name": "Walmart Auto Care Centers",
    "latitude": 36.0803201,
    "longitude": -115.1217779,
    "stars": 3.0,
    "review_count": 13
  },
  "538": {
    "name": "Psychic Eye Book Shops",
    "latitude": 36.083965,
    "longitude": -115.119842,
    "stars": 4.0,
    "review_count": 36
  },
  "539": {
    "name": "Metro Pizza",
    "latitude": 36.0808997,
    "longitude": -115.1391027,
    "stars": 2.5,
    "review_count": 21
  },
  "681": {
    "name": "Sonterra Apts",
    "latitude": 36.098302,
    "longitude": -115.130709,
    "stars": 1.5,
    "review_count": 9
  },
  "1121": {
    "name": "McCarran Airport Terminal 3",
    "latitude": 36.0854079715,
    "longitude": -115.139156471,
    "stars": 4.0,
    "review_count": 257
  },
  "1280": {
    "name": "McCarran Airport Terminal 1",
    "latitude": 36.0832742175,
    "longitude": -115.152000079,
    "stars": 3.5,
    "review_count": 25
  },
  "1305": {
    "name": "Metz Home Inspection",
    "latitude": 36.0765176,
    "longitude": -115.1533426,
    "stars": 4.5,
    "review_count": 5
  },
  "1361": {
    "name": "The B Lounge",
    "latitude": 36.085792,
    "longitude": -115.1534625,
    "stars": 2.0,
    "review_count": 11
  },
  "1362": {
    "name": "Thrifty Car Rental",
    "latitude": 36.0931103,
    "longitude": -115.1502643,
    "stars": 1.5,
    "review_count": 57
  },
  "1901": {
    "name": "Southwest Airlines",
    "latitude": 36.0838389,
    "longitude": -115.148385,
    "stars": 3.0,
    "review_count": 625
  },
  "2136": {
    "name": "The Club",
    "latitude": 36.0858251618,
    "longitude": -115.133812724,
    "stars": 3.5,
    "review_count": 43
  },
  "2284": {
    "name": "Goodtimes Bar & Nightclub",
    "latitude": 36.0993277,
    "longitude": -115.1284942,
    "stars": 3.0,
    "review_count": 24
  },
  "2461": {
    "name": "Go Gadgets",
    "latitude": 36.0985273,
    "longitude": -115.1484459,
    "stars": 4.5,
    "review_count": 277
  },
  "2464": {
    "name": "Zero Level Fitness",
    "latitude": 36.085922,
    "longitude": -115.149468,
    "stars": 4.0,
    "review_count": 12
  },
  "3293": {
    "name": "Air Canada Rouge",
    "latitude": 36.0839998,
    "longitude": -115.1537389,
    "stars": 1.5,
    "review_count": 4
  },
  "3297": {
    "name": "Korean Air",
    "latitude": 36.0839998,
    "longitude": -115.1537389,
    "stars": 3.0,
    "review_count": 4
  },
  "3536": {
    "name": "C&A Embroidery",
    "latitude": 36.0716,
    "longitude": -115.13,
    "stars": 1.5,
    "review_count": 7
  },
  "3688": {
    "name": "Country Superstars",
    "latitude": 36.0993459,
    "longitude": -115.167874,
    "stars": 2.5,
    "review_count": 20
  },
  "4382": {
    "name": "Centurion Club By American Express",
    "latitude": 36.0817806884,
    "longitude": -115.136565693,
    "stars": 4.5,
    "review_count": 467
  },
  "5220": {
    "name": "Tequileria Grille",
    "latitude": 36.080609,
    "longitude": -115.146624,
    "stars": 2.0,
    "review_count": 47
  },
  "5675": {
    "name": "Giorgio Ristorante E Caffe",
    "latitude": 36.089494,
    "longitude": -115.138026,
    "stars": 3.5,
    "review_count": 29
  },
  "5784": {
    "name": "Angelina's Pizzeria - Eastern",
    "latitude": 36.0976114,
    "longitude": -115.1196648,
    "stars": 3.0,
    "review_count": 125
  },
  "6597": {
    "name": "McCarran International Child Development Center",
    "latitude": 36.0869532,
    "longitude": -115.1282947,
    "stars": 3.5,
    "review_count": 9
  },
  "6902": {
    "name": "Anthony's Coal Fired Pizza",
    "latitude": 36.089494,
    "longitude": -115.138026,
    "stars": 3.0,
    "review_count": 25
  },
  "7849": {
    "name": "Dragon Grille",
    "latitude": 36.0765176,
    "longitude": -115.1533426,
    "stars": 4.0,
    "review_count": 60
  },
  "8003": {
    "name": "StorageOne Maryland Pkwy & Tropicana",
    "latitude": 36.0968384,
    "longitude": -115.1362635,
    "stars": 5.0,
    "review_count": 3
  },
  "8004": {
    "name": "Port of Subs",
    "latitude": 36.0839998,
    "longitude": -115.1537389,
    "stars": 2.5,
    "review_count": 14
  },
  "8805": {
    "name": "Sammy's Beach Bar & Grill",
    "latitude": 36.0826883675,
    "longitude": -115.148259147,
    "stars": 2.5,
    "review_count": 195
  },
  "9136": {
    "name": "Starbucks",
    "latitude": 36.0838389,
    "longitude": -115.148385,
    "stars": 2.5,
    "review_count": 8
  },
  "10408": {
    "name": "Hawaiian Airlines",
    "latitude": 36.0839998,
    "longitude": -115.1537389,
    "stars": 3.0,
    "review_count": 43
  },
  "10456": {
    "name": "Starbucks",
    "latitude": 36.0828425071,
    "longitude": -115.139522861,
    "stars": 2.5,
    "review_count": 9
  },
  "11402": {
    "name": "Home Team Sports",
    "latitude": 36.0835961236,
    "longitude": -115.151710939,
    "stars": 2.0,
    "review_count": 36
  },
  "11406": {
    "name": "El Cachi Mexican Kitchen",
    "latitude": 36.0977842437,
    "longitude": -115.148393846,
    "stars": 5.0,
    "review_count": 21
  },
  "11457": {
    "name": "Tropicana Animal Hospital",
    "latitude": 36.0996778,
    "longitude": -115.1200354,
    "stars": 3.5,
    "review_count": 106
  },
  "11776": {
    "name": "The Club At LAS Terminal 1",
    "latitude": 36.082106,
    "longitude": -115.13707,
    "stars": 3.0,
    "review_count": 72
  },
  "12087": {
    "name": "UMC Quick Care",
    "latitude": 36.0880328,
    "longitude": -115.1286266,
    "stars": 1.0,
    "review_count": 3
  },
  "12127": {
    "name": "Burger King",
    "latitude": 36.0850423222,
    "longitude": -115.151189509,
    "stars": 2.0,
    "review_count": 67
  },
  "12371": {
    "name": "Starbucks",
    "latitude": 36.0854594139,
    "longitude": -115.149700818,
    "stars": 3.0,
    "review_count": 20
  },
  "12391": {
    "name": "Empire Limousine",
    "latitude": 36.0765176,
    "longitude": -115.1533426,
    "stars": 2.0,
    "review_count": 5
  },
  "12547": {
    "name": "Sugar Factory",
    "latitude": 36.082074,
    "longitude": -115.137213,
    "stars": 2.5,
    "review_count": 5
  },
  "12835": {
    "name": "Victra - Verizon Authorized Retailer",
    "latitude": 36.085158494,
    "longitude": -115.119520426,
    "stars": 3.0,
    "review_count": 15
  },
  "13944": {
    "name": "Sundance Helicopters",
    "latitude": 36.088018,
    "longitude": -115.166444,
    "stars": 4.5,
    "review_count": 183
  },
  "14090": {
    "name": "London 2 Vegas VIP",
    "latitude": 36.0765176,
    "longitude": -115.1533426,
    "stars": 5.0,
    "review_count": 3
  },
  "14276": {
    "name": "Pei Wei Asian Diner",
    "latitude": 36.0811202017,
    "longitude": -115.147215269,
    "stars": 2.5,
    "review_count": 254
  },
  "14278": {
    "name": "Hudson News",
    "latitude": 36.0860982481,
    "longitude": -115.13756722,
    "stars": 2.5,
    "review_count": 3
  },
  "14478": {
    "name": "Freshens Smoothies",
    "latitude": 36.0827811,
    "longitude": -115.1480619,
    "stars": 2.0,
    "review_count": 9
  },
  "14480": {
    "name": "Popeyes Louisiana Kitchen",
    "latitude": 36.0824122729,
    "longitude": -115.148116247,
    "stars": 3.5,
    "review_count": 59
  },
  "14670": {
    "name": "Kathy's Banquet Hall And Dance Academy",
    "latitude": 36.099485,
    "longitude": -115.136913,
    "stars": 1.0,
    "review_count": 3
  },
  "14873": {
    "name": "MP K9 All Breed Dog Training",
    "latitude": 36.0831769387,
    "longitude": -115.158835764,
    "stars": 4.5,
    "review_count": 16
  },
  "14951": {
    "name": "Distinctive Smiles",
    "latitude": 36.0930513,
    "longitude": -115.1188957,
    "stars": 4.5,
    "review_count": 13
  },
  "15594": {
    "name": "Number One Escape Room",
    "latitude": 36.0993309,
    "longitude": -115.1285043,
    "stars": 5.0,
    "review_count": 74
  },
  "15595": {
    "name": "Bank of America",
    "latitude": 36.080343,
    "longitude": -115.119353,
    "stars": 2.0,
    "review_count": 25
  },
  "16450": {
    "name": "Jamba Juice",
    "latitude": 36.0819824,
    "longitude": -115.1196025,
    "stars": 4.0,
    "review_count": 73
  },
  "16494": {
    "name": "Champion Pest Control",
    "latitude": 36.0765176,
    "longitude": -115.1533426,
    "stars": 5.0,
    "review_count": 6
  },
  "16746": {
    "name": "Starbucks",
    "latitude": 36.0857136036,
    "longitude": -115.119438662,
    "stars": 3.5,
    "review_count": 66
  },
  "16994": {
    "name": "McCarran Marketplace",
    "latitude": 36.0841716,
    "longitude": -115.1221806,
    "stars": 5.0,
    "review_count": 3
  },
  "17647": {
    "name": "California Pizza Kitchen",
    "latitude": 36.0814661072,
    "longitude": -115.137765898,
    "stars": 2.0,
    "review_count": 191
  },
  "17743": {
    "name": "Mad Onion",
    "latitude": 36.0993459,
    "longitude": -115.167874,
    "stars": 3.0,
    "review_count": 158
  },
  "17810": {
    "name": "Spa At Four Seasons Hotel Las Vegas",
    "latitude": 36.0908811798,
    "longitude": -115.139055968,
    "stars": 4.5,
    "review_count": 35
  },
  "18366": {
    "name": "The Dirty Joke Show",
    "latitude": 36.0993459,
    "longitude": -115.167874,
    "stars": 2.5,
    "review_count": 7
  },
  "18520": {
    "name": "Folies Bergere",
    "latitude": 36.0993632,
    "longitude": -115.1709616,
    "stars": 2.0,
    "review_count": 4
  },
  "18640": {
    "name": "360 Gourmet Burrito",
    "latitude": 36.0828536999,
    "longitude": -115.151202661,
    "stars": 2.0,
    "review_count": 156
  },
  "18696": {
    "name": "Wolfgang Puck Express",
    "latitude": 36.0805040973,
    "longitude": -115.128128544,
    "stars": 2.0,
    "review_count": 3
  },
  "18797": {
    "name": "Discount Rental Car",
    "latitude": 36.0989012,
    "longitude": -115.1487518,
    "stars": 3.0,
    "review_count": 14
  },
  "18798": {
    "name": "Aron's Tree Service",
    "latitude": 36.0765176,
    "longitude": -115.1533426,
    "stars": 4.5,
    "review_count": 17
  },
  "18800": {
    "name": "Hair We R",
    "latitude": 36.0975709,
    "longitude": -115.1196375,
    "stars": 4.0,
    "review_count": 9
  },
  "18955": {
    "name": "Cabo Wabo Cantina",
    "latitude": 36.089494,
    "longitude": -115.138026,
    "stars": 3.5,
    "review_count": 5
  },
  "19109": {
    "name": "Onyx",
    "latitude": 36.097786,
    "longitude": -115.166381,
    "stars": 3.5,
    "review_count": 5
  },
  "19749": {
    "name": "Hotel San Remo",
    "latitude": 36.0993459,
    "longitude": -115.167874,
    "stars": 2.5,
    "review_count": 5
  },
  "19820": {
    "name": "Fast Fix Wireless iPhone Computer Ipad Repair & Cell Phone Plans",
    "latitude": 36.0870958,
    "longitude": -115.1192258,
    "stars": 4.5,
    "review_count": 6
  },
  "19869": {
    "name": "Air Canada",
    "latitude": 36.0854286,
    "longitude": -115.149927,
    "stars": 1.0,
    "review_count": 8
  },
  "20266": {
    "name": "Sofia's Pizza",
    "latitude": 36.087212,
    "longitude": -115.119135,
    "stars": 2.5,
    "review_count": 111
  },
  "20361": {
    "name": "Gamblers Book Club",
    "latitude": 36.0902814,
    "longitude": -115.119207,
    "stars": 4.0,
    "review_count": 5
  },
  "20362": {
    "name": "Pussykat Tattoo",
    "latitude": 36.0992725,
    "longitude": -115.1362126,
    "stars": 4.0,
    "review_count": 73
  },
  "20371": {
    "name": "Las Vegas Fruits & Nuts",
    "latitude": 36.0849949108,
    "longitude": -115.119420368,
    "stars": 5.0,
    "review_count": 31
  },
  "20374": {
    "name": "Auntie Anne's Pretzels",
    "latitude": 36.0838389,
    "longitude": -115.148385,
    "stars": 3.5,
    "review_count": 4
  },
  "20570": {
    "name": "Joseph Eng, OD & Associates",
    "latitude": 36.0800691829,
    "longitude": -115.121565094,
    "stars": 5.0,
    "review_count": 3
  },
  "20571": {
    "name": "Regal Nails",
    "latitude": 36.0803469,
    "longitude": -115.1218821,
    "stars": 3.0,
    "review_count": 9
  },
  "21429": {
    "name": "Putter's Bar & Grill",
    "latitude": 36.0976114,
    "longitude": -115.1196648,
    "stars": 2.5,
    "review_count": 5
  },
  "21541": {
    "name": "Chimney Cricket Las Vegas",
    "latitude": 36.0765176,
    "longitude": -115.1533426,
    "stars": 4.0,
    "review_count": 5
  },
  "21689": {
    "name": "Westcliff Airport Express",
    "latitude": 36.0839998,
    "longitude": -115.1537389,
    "stars": 4.5,
    "review_count": 30
  },
  "21690": {
    "name": "Brookwood Farms BBQ",
    "latitude": 36.0804231143,
    "longitude": -115.146389647,
    "stars": 3.0,
    "review_count": 29
  },
  "22042": {
    "name": "Alfredo's Jewelry",
    "latitude": 36.0850508374,
    "longitude": -115.119420802,
    "stars": 5.0,
    "review_count": 30
  },
  "22778": {
    "name": "Premier Property Services",
    "latitude": 36.0765176,
    "longitude": -115.1533426,
    "stars": 5.0,
    "review_count": 4
  },
  "22954": {
    "name": "La Tapenade Mediterranean Cafe",
    "latitude": 36.0804093081,
    "longitude": -115.133261021,
    "stars": 2.0,
    "review_count": 17
  },
  "23654": {
    "name": "PetSmart",
    "latitude": 36.0815516326,
    "longitude": -115.121650622,
    "stars": 3.0,
    "review_count": 55
  },
  "24145": {
    "name": "The Club At LAS Terminal 3",
    "latitude": 36.086021,
    "longitude": -115.13367,
    "stars": 4.0,
    "review_count": 16
  },
  "24556": {
    "name": "Mears Global Chauffeured Services",
    "latitude": 36.0765176,
    "longitude": -115.1533426,
    "stars": 3.0,
    "review_count": 4
  },
  "24622": {
    "name": "GNC Mccarran Marketplace",
    "latitude": 36.0816248095,
    "longitude": -115.119742794,
    "stars": 5.0,
    "review_count": 5
  },
  "24816": {
    "name": "Taste of India",
    "latitude": 36.099142,
    "longitude": -115.136192,
    "stars": 3.5,
    "review_count": 35
  },
  "25052": {
    "name": "Village Pub and Grill",
    "latitude": 36.0854286,
    "longitude": -115.149927,
    "stars": 2.5,
    "review_count": 6
  },
  "25158": {
    "name": "Port of Subs #114",
    "latitude": 36.089494,
    "longitude": -115.138026,
    "stars": 2.5,
    "review_count": 39
  },
  "25160": {
    "name": "David Frost Comedy Magic Show",
    "latitude": 36.0993309,
    "longitude": -115.1285043,
    "stars": 5.0,
    "review_count": 4
  },
  "25399": {
    "name": "Auntie Anne's",
    "latitude": 36.0815933875,
    "longitude": -115.138027116,
    "stars": 3.0,
    "review_count": 41
  },
  "25400": {
    "name": "Five Star Liquor",
    "latitude": 36.0989772,
    "longitude": -115.1469007,
    "stars": 1.0,
    "review_count": 3
  },
  "25401": {
    "name": "Your New Look Starts Here",
    "latitude": 36.0765176,
    "longitude": -115.1533426,
    "stars": 5.0,
    "review_count": 3
  },
  "25629": {
    "name": "American Painting",
    "latitude": 36.0995439,
    "longitude": -115.1203563,
    "stars": 3.5,
    "review_count": 3
  },
  "25630": {
    "name": "Trifecta Decorating",
    "latitude": 36.0765176,
    "longitude": -115.1533426,
    "stars": 4.0,
    "review_count": 3
  },
  "25632": {
    "name": "Lime Cleaners",
    "latitude": 36.0821417321,
    "longitude": -115.119426418,
    "stars": 5.0,
    "review_count": 6
  },
  "25729": {
    "name": "Mimi's Skin Care",
    "latitude": 36.0765176,
    "longitude": -115.1533426,
    "stars": 3.0,
    "review_count": 4
  },
  "25811": {
    "name": "Designated Drivers",
    "latitude": 36.0765176,
    "longitude": -115.1533426,
    "stars": 5.0,
    "review_count": 8
  },
  "25839": {
    "name": "The Dam Restaurant",
    "latitude": 36.0993459,
    "longitude": -115.167874,
    "stars": 1.5,
    "review_count": 5
  },
  "25855": {
    "name": "Harry O Productions",
    "latitude": 36.0765176,
    "longitude": -115.1533426,
    "stars": 5.0,
    "review_count": 16
  },
  "26082": {
    "name": "Vienna Hot Dog\/Mrs. Fields",
    "latitude": 36.0765176,
    "longitude": -115.1533426,
    "stars": 3.0,
    "review_count": 3
  },
  "26388": {
    "name": "Nigerian Cuisine",
    "latitude": 36.0986458,
    "longitude": -115.1360641,
    "stars": 3.0,
    "review_count": 31
  },
  "26390": {
    "name": "Quail Ridge Apartment Homes by ConAm Management",
    "latitude": 36.095007,
    "longitude": -115.135686,
    "stars": 3.0,
    "review_count": 5
  },
  "27346": {
    "name": "Crystal Foot Spa",
    "latitude": 36.0969452651,
    "longitude": -115.167617578,
    "stars": 4.0,
    "review_count": 33
  },
  "27435": {
    "name": "Don Alejandro's Texan Grill",
    "latitude": 36.086279,
    "longitude": -115.149353,
    "stars": 1.5,
    "review_count": 32
  },
  "27822": {
    "name": "Dollar Tree",
    "latitude": 36.0816107,
    "longitude": -115.1219596,
    "stars": 3.0,
    "review_count": 8
  },
  "27866": {
    "name": "Margaret Terhar",
    "latitude": 36.0911586128,
    "longitude": -115.138712646,
    "stars": 4.0,
    "review_count": 4
  },
  "28896": {
    "name": "Bee Creative Ceramics",
    "latitude": 36.0945897,
    "longitude": -115.1192942,
    "stars": 3.0,
    "review_count": 34
  },
  "29118": {
    "name": "Chipotle Mexican Grill",
    "latitude": 36.0854182882,
    "longitude": -115.119438384,
    "stars": 3.0,
    "review_count": 43
  },
  "30036": {
    "name": "Village Pub & Grill",
    "latitude": 36.0856990312,
    "longitude": -115.139543168,
    "stars": 3.0,
    "review_count": 117
  },
  "30702": {
    "name": "Flatbreadz",
    "latitude": 36.0847897018,
    "longitude": -115.151635687,
    "stars": 2.5,
    "review_count": 53
  },
  "30913": {
    "name": "Bella Vita Condos",
    "latitude": 36.0765176,
    "longitude": -115.1533426,
    "stars": 2.5,
    "review_count": 9
  },
  "32474": {
    "name": "The Great American Bagel",
    "latitude": 36.080733,
    "longitude": -115.147022,
    "stars": 2.0,
    "review_count": 94
  },
  "33900": {
    "name": "United Club",
    "latitude": 36.0811096284,
    "longitude": -115.139218606,
    "stars": 3.5,
    "review_count": 42
  },
  "34377": {
    "name": "#1 Hawaiian Barbecue",
    "latitude": 36.0819824,
    "longitude": -115.1196025,
    "stars": 3.5,
    "review_count": 37
  },
  "34682": {
    "name": "Ross Dress for Less",
    "latitude": 36.0816107,
    "longitude": -115.1219596,
    "stars": 3.5,
    "review_count": 26
  },
  "35161": {
    "name": "Madina Elamki",
    "latitude": 36.0765176,
    "longitude": -115.1533426,
    "stars": 5.0,
    "review_count": 3
  },
  "36130": {
    "name": "Noelin Wheeler Tattoo",
    "latitude": 36.0765176,
    "longitude": -115.1533426,
    "stars": 5.0,
    "review_count": 17
  },
  "36284": {
    "name": "TSA PreCheck Enrollment Center",
    "latitude": 36.0853130086,
    "longitude": -115.149428986,
    "stars": 4.0,
    "review_count": 3
  },
  "36646": {
    "name": "The Sin City Shooter",
    "latitude": 36.0765176,
    "longitude": -115.1533426,
    "stars": 5.0,
    "review_count": 6
  },
  "37182": {
    "name": "Floor Covering Factory Outlet",
    "latitude": 36.0765176,
    "longitude": -115.1533426,
    "stars": 4.0,
    "review_count": 9
  },
  "37235": {
    "name": "Del Taco",
    "latitude": 36.0808928,
    "longitude": -115.119409,
    "stars": 3.5,
    "review_count": 10
  },
  "39174": {
    "name": "Comedy Daredevil",
    "latitude": 36.0993459,
    "longitude": -115.167874,
    "stars": 5.0,
    "review_count": 8
  },
  "39337": {
    "name": "Nathan's Famous",
    "latitude": 36.0819322382,
    "longitude": -115.147665797,
    "stars": 2.0,
    "review_count": 33
  },
  "40576": {
    "name": "National Car Rental",
    "latitude": 36.094877,
    "longitude": -115.150314,
    "stars": 4.0,
    "review_count": 23
  },
  "40760": {
    "name": "Einstein Bros Bagels",
    "latitude": 36.0829300716,
    "longitude": -115.150987355,
    "stars": 2.5,
    "review_count": 52
  },
  "40971": {
    "name": "Onlinetickets.com",
    "latitude": 36.0967419,
    "longitude": -115.1676859,
    "stars": 1.0,
    "review_count": 3
  },
  "41921": {
    "name": "Cicis",
    "latitude": 36.098677067,
    "longitude": -115.118678212,
    "stars": 3.0,
    "review_count": 125
  },
  "41951": {
    "name": "Alaska Airlines",
    "latitude": 36.0853715032,
    "longitude": -115.14055911,
    "stars": 3.5,
    "review_count": 46
  },
  "44837": {
    "name": "Travelodge by Wyndham Las Vegas Airport No\/Near The Strip",
    "latitude": 36.0982756,
    "longitude": -115.16403926,
    "stars": 2.0,
    "review_count": 42
  },
  "45067": {
    "name": "Murray 'Celebrity Magician'",
    "latitude": 36.0993632,
    "longitude": -115.1709616,
    "stars": 3.5,
    "review_count": 60
  },
  "45613": {
    "name": "TCBY",
    "latitude": 36.086251,
    "longitude": -115.151703,
    "stars": 2.5,
    "review_count": 8
  },
  "46430": {
    "name": "TSA Checkpoint Terminal 1 - D - Mccarran International Airport",
    "latitude": 36.0849929,
    "longitude": -115.1511348,
    "stars": 2.0,
    "review_count": 23
  },
  "46611": {
    "name": "CVS Pharmacy",
    "latitude": 36.0868045,
    "longitude": -115.1681484,
    "stars": 3.5,
    "review_count": 7
  },
  "46836": {
    "name": "Diya Eyebrow Threading",
    "latitude": 36.084879,
    "longitude": -115.119434,
    "stars": 4.5,
    "review_count": 50
  },
  "47726": {
    "name": "Megabus",
    "latitude": 36.0765176,
    "longitude": -115.1533426,
    "stars": 2.5,
    "review_count": 69
  },
  "47728": {
    "name": "Lowe's Home Improvement",
    "latitude": 36.0842928186,
    "longitude": -115.122101987,
    "stars": 3.5,
    "review_count": 45
  },
  "48880": {
    "name": "Village Meat & Wine",
    "latitude": 36.098107,
    "longitude": -115.119846,
    "stars": 4.5,
    "review_count": 41
  },
  "50023": {
    "name": "Cinnabon",
    "latitude": 36.0814793064,
    "longitude": -115.13721195,
    "stars": 3.0,
    "review_count": 32
  },
  "50349": {
    "name": "Jamba Juice",
    "latitude": 36.0833234937,
    "longitude": -115.148674889,
    "stars": 3.0,
    "review_count": 80
  },
  "50351": {
    "name": "XpresSpa",
    "latitude": 36.086017,
    "longitude": -115.134637,
    "stars": 4.0,
    "review_count": 29
  },
  "50352": {
    "name": "McDonald's",
    "latitude": 36.0803469,
    "longitude": -115.1218821,
    "stars": 1.5,
    "review_count": 10
  },
  "50353": {
    "name": "Jose Cuervo Tequileria",
    "latitude": 36.0805241787,
    "longitude": -115.146616457,
    "stars": 2.0,
    "review_count": 460
  },
  "50355": {
    "name": "Aeromexico",
    "latitude": 36.084552,
    "longitude": -115.153824,
    "stars": 1.0,
    "review_count": 7
  },
  "50574": {
    "name": "Signature Flight Support",
    "latitude": 36.080121972,
    "longitude": -115.170681483,
    "stars": 5.0,
    "review_count": 6
  },
  "50577": {
    "name": "Belgian Beer Cafe",
    "latitude": 36.0839998,
    "longitude": -115.1537389,
    "stars": 2.0,
    "review_count": 9
  },
  "51632": {
    "name": "China Dragon",
    "latitude": 36.0817851827,
    "longitude": -115.119440965,
    "stars": 3.5,
    "review_count": 90
  },
  "51681": {
    "name": "Dream Car Rentals",
    "latitude": 36.0977086,
    "longitude": -115.148363,
    "stars": 1.5,
    "review_count": 22
  },
  "52078": {
    "name": "Blue Burrito Grille",
    "latitude": 36.080542,
    "longitude": -115.146459,
    "stars": 2.5,
    "review_count": 32
  },
  "52121": {
    "name": "Meineke Car Care Center",
    "latitude": 36.096503,
    "longitude": -115.136361,
    "stars": 3.5,
    "review_count": 30
  },
  "52409": {
    "name": "Code 3 Urgent Care",
    "latitude": 36.0839998,
    "longitude": -115.1537389,
    "stars": 5.0,
    "review_count": 27
  },
  "52492": {
    "name": "Xtreme Magic starring Dirk Arthur",
    "latitude": 36.0990448,
    "longitude": -115.1704519,
    "stars": 3.0,
    "review_count": 10
  },
  "52496": {
    "name": "Allegiant Air",
    "latitude": 36.08572,
    "longitude": -115.153224,
    "stars": 1.5,
    "review_count": 699
  },
  "52518": {
    "name": "JetBlue",
    "latitude": 36.0854286,
    "longitude": -115.149927,
    "stars": 3.0,
    "review_count": 128
  },
  "53874": {
    "name": "WestJet",
    "latitude": 36.0838389,
    "longitude": -115.148385,
    "stars": 3.5,
    "review_count": 3
  },
  "54349": {
    "name": "Dessy B's Steak House",
    "latitude": 36.0996904,
    "longitude": -115.1195912,
    "stars": 3.5,
    "review_count": 145
  },
  "54861": {
    "name": "TSA Checkpoint Terminal 1 - A\/B - Mccarran International Airport",
    "latitude": 36.0849929,
    "longitude": -115.1511348,
    "stars": 1.5,
    "review_count": 7
  },
  "55517": {
    "name": "Picanha Steak Truck",
    "latitude": 36.0765176,
    "longitude": -115.1533426,
    "stars": 4.0,
    "review_count": 27
  },
  "56073": {
    "name": "RPM Nightclub",
    "latitude": 36.099039,
    "longitude": -115.17044,
    "stars": 2.5,
    "review_count": 11
  },
  "56399": {
    "name": "Sprint",
    "latitude": 36.0847184,
    "longitude": -115.1188815,
    "stars": 3.0,
    "review_count": 4
  },
  "56530": {
    "name": "Sai India Curry",
    "latitude": 36.0987077,
    "longitude": -115.136795,
    "stars": 3.0,
    "review_count": 9
  },
  "57092": {
    "name": "Paver Sealing Vegas",
    "latitude": 36.0995439,
    "longitude": -115.1203563,
    "stars": 4.5,
    "review_count": 12
  },
  "58045": {
    "name": "Havana Room",
    "latitude": 36.0990448,
    "longitude": -115.1704519,
    "stars": 3.5,
    "review_count": 5
  },
  "58110": {
    "name": "Glow, a Mandara Spa",
    "latitude": 36.099039,
    "longitude": -115.17044,
    "stars": 2.5,
    "review_count": 42
  },
  "59163": {
    "name": "Tha Line Up Barbershop and Salon",
    "latitude": 36.0870479,
    "longitude": -115.1192015,
    "stars": 4.5,
    "review_count": 160
  },
  "59164": {
    "name": "Partell Specialty Pharmacy",
    "latitude": 36.080459,
    "longitude": -115.119553,
    "stars": 2.5,
    "review_count": 21
  },
  "60409": {
    "name": "FedEx Office Print & Ship Center",
    "latitude": 36.0848569,
    "longitude": -115.1195138,
    "stars": 2.0,
    "review_count": 24
  },
  "61257": {
    "name": "Walmart Supercenter",
    "latitude": 36.0803201,
    "longitude": -115.1217779,
    "stars": 2.5,
    "review_count": 100
  },
  "61564": {
    "name": "Berns Music School",
    "latitude": 36.0944983,
    "longitude": -115.1190599,
    "stars": 4.0,
    "review_count": 4
  },
  "61856": {
    "name": "Cadillac Ranch",
    "latitude": 36.089494,
    "longitude": -115.138026,
    "stars": 2.5,
    "review_count": 81
  },
  "62183": {
    "name": "Free Green Window Cleaning",
    "latitude": 36.0765176,
    "longitude": -115.1533426,
    "stars": 5.0,
    "review_count": 19
  },
  "62185": {
    "name": "Frontier Airlines",
    "latitude": 36.086407,
    "longitude": -115.149425,
    "stars": 1.5,
    "review_count": 190
  },
  "62487": {
    "name": "Discount Auto Sales",
    "latitude": 36.0989012,
    "longitude": -115.1487518,
    "stars": 3.0,
    "review_count": 15
  },
  "62489": {
    "name": "Psychic Spa",
    "latitude": 36.0870194,
    "longitude": -115.119232,
    "stars": 3.0,
    "review_count": 24
  },
  "62528": {
    "name": "Pro Tech Appliance Care",
    "latitude": 36.0765176,
    "longitude": -115.1533426,
    "stars": 2.5,
    "review_count": 3
  },
  "62530": {
    "name": "Corcoran's Irish Pub",
    "latitude": 36.0816306995,
    "longitude": -115.146902923,
    "stars": 2.5,
    "review_count": 19
  },
  "62532": {
    "name": "Firehouse Subs",
    "latitude": 36.0819824,
    "longitude": -115.1196025,
    "stars": 4.0,
    "review_count": 102
  },
  "62569": {
    "name": "Real Steemer",
    "latitude": 36.0765176,
    "longitude": -115.1533426,
    "stars": 1.5,
    "review_count": 37
  },
  "62643": {
    "name": "Slick Bartender",
    "latitude": 36.0765176,
    "longitude": -115.1533426,
    "stars": 5.0,
    "review_count": 9
  },
  "62644": {
    "name": "Sav-Mor Rent-A-Car",
    "latitude": 36.0765176,
    "longitude": -115.1533426,
    "stars": 1.5,
    "review_count": 6
  },
  "62871": {
    "name": "Liquor Library LV",
    "latitude": 36.0848971,
    "longitude": -115.1486363,
    "stars": 4.0,
    "review_count": 17
  },
  "63199": {
    "name": "Juice Express",
    "latitude": 36.0854286,
    "longitude": -115.149927,
    "stars": 3.0,
    "review_count": 13
  },
  "63835": {
    "name": "Brooks Whitmore - State Farm Insurance Agent",
    "latitude": 36.089716,
    "longitude": -115.11916,
    "stars": 4.0,
    "review_count": 4
  },
  "64276": {
    "name": "Vegas Evictions",
    "latitude": 36.09,
    "longitude": -115.15,
    "stars": 4.5,
    "review_count": 3
  },
  "65247": {
    "name": "Island Buffet",
    "latitude": 36.0993783,
    "longitude": -115.1710285,
    "stars": 1.5,
    "review_count": 9
  },
  "66240": {
    "name": "The Coffee Bean & Tea Leaf",
    "latitude": 36.0860282,
    "longitude": -115.1389377,
    "stars": 2.5,
    "review_count": 20
  },
  "66243": {
    "name": "Exquisite Nails",
    "latitude": 36.0819824,
    "longitude": -115.1196025,
    "stars": 4.0,
    "review_count": 55
  },
  "66247": {
    "name": "MAC Cosmetics",
    "latitude": 36.0817250452,
    "longitude": -115.138108756,
    "stars": 2.0,
    "review_count": 10
  },
  "66345": {
    "name": "Sin City Selfies",
    "latitude": 36.0765176,
    "longitude": -115.1533426,
    "stars": 5.0,
    "review_count": 3
  },
  "67126": {
    "name": "Gate D55",
    "latitude": 36.0797665,
    "longitude": -115.127809,
    "stars": 3.0,
    "review_count": 3
  },
  "67168": {
    "name": "Tattoo LV",
    "latitude": 36.0993309,
    "longitude": -115.1285043,
    "stars": 4.0,
    "review_count": 7
  },
  "67601": {
    "name": "Mamma Mia!",
    "latitude": 36.0993783,
    "longitude": -115.1710285,
    "stars": 4.5,
    "review_count": 6
  },
  "68330": {
    "name": "Sally Beauty Supply",
    "latitude": 36.0818357221,
    "longitude": -115.119649728,
    "stars": 3.5,
    "review_count": 7
  },
  "68332": {
    "name": "Burke in the Box",
    "latitude": 36.0828221335,
    "longitude": -115.13919837,
    "stars": 2.0,
    "review_count": 180
  },
  "68550": {
    "name": "Quiznos",
    "latitude": 36.0810825738,
    "longitude": -115.139058642,
    "stars": 2.5,
    "review_count": 16
  },
  "68689": {
    "name": "Starbucks",
    "latitude": 36.0804871456,
    "longitude": -115.14672403,
    "stars": 2.5,
    "review_count": 185
  },
  "69154": {
    "name": "Dewar's Clubhouse",
    "latitude": 36.085598615,
    "longitude": -115.134785688,
    "stars": 1.5,
    "review_count": 9
  },
  "69266": {
    "name": "Banfield Pet Hospital",
    "latitude": 36.0816107,
    "longitude": -115.1219596,
    "stars": 3.0,
    "review_count": 8
  },
  "69586": {
    "name": "JetSuiteX",
    "latitude": 36.0967419,
    "longitude": -115.1676804,
    "stars": 4.5,
    "review_count": 24
  },
  "69695": {
    "name": "Crafted Bar",
    "latitude": 36.084622643,
    "longitude": -115.150363764,
    "stars": 3.5,
    "review_count": 4
  },
  "69777": {
    "name": "Moe's Southwest Grill",
    "latitude": 36.085514,
    "longitude": -115.154088,
    "stars": 2.0,
    "review_count": 67
  },
  "69814": {
    "name": "Worldwide Vacations",
    "latitude": 36.0967523,
    "longitude": -115.1676859,
    "stars": 1.0,
    "review_count": 3
  },
  "70127": {
    "name": "Newport Cove East Apartments",
    "latitude": 36.093897,
    "longitude": -115.132161,
    "stars": 2.5,
    "review_count": 3
  },
  "70129": {
    "name": "Big Al,s Chicago Deli",
    "latitude": 36.085713,
    "longitude": -115.149418,
    "stars": 2.5,
    "review_count": 6
  },
  "70667": {
    "name": "Fast Moving",
    "latitude": 36.098467,
    "longitude": -115.148375,
    "stars": 2.0,
    "review_count": 4
  },
  "70710": {
    "name": "Pizza Hut Express",
    "latitude": 36.0839998,
    "longitude": -115.1537389,
    "stars": 2.0,
    "review_count": 5
  },
  "71094": {
    "name": "Green Orchid Events",
    "latitude": 36.0765176,
    "longitude": -115.1533426,
    "stars": 5.0,
    "review_count": 13
  },
  "71620": {
    "name": "Leak Point",
    "latitude": 36.09,
    "longitude": -115.15,
    "stars": 2.0,
    "review_count": 5
  },
  "72221": {
    "name": "Spirit Airlines",
    "latitude": 36.085729,
    "longitude": -115.15314,
    "stars": 1.5,
    "review_count": 1059
  },
  "72334": {
    "name": "Quality Stitch Custom Embroidery",
    "latitude": 36.0765176,
    "longitude": -115.1533426,
    "stars": 5.0,
    "review_count": 14
  },
  "72336": {
    "name": "Fantastic Sams Cut & Color",
    "latitude": 36.085564,
    "longitude": -115.119534,
    "stars": 4.5,
    "review_count": 44
  },
  "72473": {
    "name": "Las Vegas Harley-Davidson",
    "latitude": 36.083343,
    "longitude": -115.171707,
    "stars": 3.0,
    "review_count": 45
  },
  "72474": {
    "name": "PGA Tour Grill",
    "latitude": 36.0835550898,
    "longitude": -115.152172633,
    "stars": 2.0,
    "review_count": 51
  },
  "72990": {
    "name": "Fresh Market On The Go",
    "latitude": 36.0883812,
    "longitude": -115.1506875,
    "stars": 3.5,
    "review_count": 7
  },
  "73706": {
    "name": "Tamarus Park Apartments",
    "latitude": 36.0791769086,
    "longitude": -115.162705028,
    "stars": 2.5,
    "review_count": 3
  },
  "73727": {
    "name": "Cheep Cheep Movers",
    "latitude": 36.0765176,
    "longitude": -115.1533426,
    "stars": 3.0,
    "review_count": 29
  },
  "73730": {
    "name": "Volaris",
    "latitude": 36.0858593356,
    "longitude": -115.131404281,
    "stars": 1.0,
    "review_count": 6
  },
  "73782": {
    "name": "Office Depot",
    "latitude": 36.0818406865,
    "longitude": -115.121682271,
    "stars": 4.5,
    "review_count": 15
  },
  "73958": {
    "name": "Maverick Helicopters",
    "latitude": 36.0787059417,
    "longitude": -115.172061185,
    "stars": 4.5,
    "review_count": 333
  },
  "73959": {
    "name": "Perfect Eviction",
    "latitude": 36.0765176,
    "longitude": -115.1533426,
    "stars": 5.0,
    "review_count": 22
  },
  "74114": {
    "name": "Villa Pizza",
    "latitude": 36.0839998,
    "longitude": -115.1537389,
    "stars": 2.5,
    "review_count": 21
  },
  "74165": {
    "name": "EZ Travel Las Vegas",
    "latitude": 36.0967523,
    "longitude": -115.1676859,
    "stars": 1.0,
    "review_count": 11
  },
  "74263": {
    "name": "Boulevard Trophy",
    "latitude": 36.0989253,
    "longitude": -115.1327982,
    "stars": 4.5,
    "review_count": 16
  },
  "74264": {
    "name": "USO Terminal 1",
    "latitude": 36.0886451,
    "longitude": -115.1503947,
    "stars": 4.5,
    "review_count": 10
  },
  "75242": {
    "name": "LasVegasTickets.com",
    "latitude": 36.0985273,
    "longitude": -115.1484459,
    "stars": 4.0,
    "review_count": 4
  },
  "75388": {
    "name": "Harmony Artistry",
    "latitude": 36.0765176,
    "longitude": -115.1533426,
    "stars": 5.0,
    "review_count": 3
  },
  "75491": {
    "name": "Vegas Gloss",
    "latitude": 36.0765176,
    "longitude": -115.1533426,
    "stars": 5.0,
    "review_count": 8
  },
  "76580": {
    "name": "Cloud Nine Balloon Ride",
    "latitude": 36.092191,
    "longitude": -115.171466,
    "stars": 3.5,
    "review_count": 3
  },
  "76653": {
    "name": "Great Steak",
    "latitude": 36.0829449985,
    "longitude": -115.152655954,
    "stars": 1.5,
    "review_count": 24
  },
  "76760": {
    "name": "El Patio Catering",
    "latitude": 36.0808842272,
    "longitude": -115.147404671,
    "stars": 4.5,
    "review_count": 6
  },
  "77497": {
    "name": "SmartStyle",
    "latitude": 36.079878,
    "longitude": -115.121849,
    "stars": 4.0,
    "review_count": 9
  },
  "77500": {
    "name": "American Airlines",
    "latitude": 36.0858698363,
    "longitude": -115.148906708,
    "stars": 1.5,
    "review_count": 159
  },
  "77501": {
    "name": "The Coffee Bean & Tea Leaf",
    "latitude": 36.0862080203,
    "longitude": -115.138186933,
    "stars": 3.0,
    "review_count": 71
  },
  "77516": {
    "name": "Cal Jet by Elite Airways",
    "latitude": 36.0839998,
    "longitude": -115.1537389,
    "stars": 2.5,
    "review_count": 15
  },
  "77678": {
    "name": "Great Steak Potato",
    "latitude": 36.0854286,
    "longitude": -115.149927,
    "stars": 2.0,
    "review_count": 69
  },
  "77681": {
    "name": "Rancho Alvarado Apartments",
    "latitude": 36.097406,
    "longitude": -115.135714,
    "stars": 2.0,
    "review_count": 3
  },
  "77995": {
    "name": "Eastern Hills Family Dental",
    "latitude": 36.0819824,
    "longitude": -115.1196025,
    "stars": 4.5,
    "review_count": 28
  },
  "78121": {
    "name": "Sin City Vapor",
    "latitude": 36.0977824,
    "longitude": -115.1198557,
    "stars": 4.0,
    "review_count": 30
  },
  "78446": {
    "name": "Advanced Vision Institute",
    "latitude": 36.093779,
    "longitude": -115.119271,
    "stars": 4.0,
    "review_count": 43
  },
  "78562": {
    "name": "Enterprise Rent-A-Car",
    "latitude": 36.0980635324,
    "longitude": -115.148062843,
    "stars": 4.0,
    "review_count": 22
  },
  "78738": {
    "name": "Villa Fresh Italian Kitchen",
    "latitude": 36.0831603054,
    "longitude": -115.145247839,
    "stars": 3.0,
    "review_count": 6
  },
  "78929": {
    "name": "Jackson Hewitt Tax Service",
    "latitude": 36.080421,
    "longitude": -115.118829,
    "stars": 4.0,
    "review_count": 5
  },
  "79881": {
    "name": "Rachel's Kitchen",
    "latitude": 36.080972,
    "longitude": -115.135804,
    "stars": 4.0,
    "review_count": 46
  },
  "79990": {
    "name": "On Cue Billiards",
    "latitude": 36.0765176,
    "longitude": -115.1533426,
    "stars": 5.0,
    "review_count": 70
  },
  "79992": {
    "name": "Burger King",
    "latitude": 36.0859798642,
    "longitude": -115.138791303,
    "stars": 2.0,
    "review_count": 53
  },
  "80501": {
    "name": "Renovation Piano Services",
    "latitude": 36.0765176,
    "longitude": -115.1533426,
    "stars": 4.5,
    "review_count": 6
  },
  "81025": {
    "name": "Cinnabon",
    "latitude": 36.0883812,
    "longitude": -115.1506875,
    "stars": 3.0,
    "review_count": 3
  },
  "81036": {
    "name": "Sammy's Beach Bar & Grill",
    "latitude": 36.08316,
    "longitude": -115.145248,
    "stars": 2.5,
    "review_count": 147
  },
  "81038": {
    "name": "Peas & Carrots",
    "latitude": 36.0765176,
    "longitude": -115.1533426,
    "stars": 5.0,
    "review_count": 4
  },
  "81227": {
    "name": "Pei Wei",
    "latitude": 36.0838389,
    "longitude": -115.148385,
    "stars": 2.5,
    "review_count": 8
  },
  "81800": {
    "name": "Port of Subs",
    "latitude": 36.0856477707,
    "longitude": -115.119425882,
    "stars": 4.0,
    "review_count": 29
  },
  "82618": {
    "name": "Budweiser Brewhouse",
    "latitude": 36.0839998,
    "longitude": -115.1537389,
    "stars": 2.5,
    "review_count": 3
  },
  "83695": {
    "name": "Enclave",
    "latitude": 36.0840377,
    "longitude": -115.1186621,
    "stars": 5.0,
    "review_count": 4
  },
  "84052": {
    "name": "Southwest Airline",
    "latitude": 36.0803314,
    "longitude": -115.1247211,
    "stars": 2.5,
    "review_count": 5
  },
  "84055": {
    "name": "Nextgen Pickers",
    "latitude": 36.0993309,
    "longitude": -115.1285043,
    "stars": 4.5,
    "review_count": 14
  },
  "84200": {
    "name": "McCarran International Airport Terminal 1 - D",
    "latitude": 36.08102827,
    "longitude": -115.139156134,
    "stars": 3.5,
    "review_count": 25
  },
  "84411": {
    "name": "Hooters Casino Hotel Las Vegas",
    "latitude": 36.0993459,
    "longitude": -115.167874,
    "stars": 2.5,
    "review_count": 1432
  },
  "84439": {
    "name": "Xterious Escape",
    "latitude": 36.0969492602,
    "longitude": -115.167898748,
    "stars": 4.5,
    "review_count": 211
  },
  "85071": {
    "name": "Enterprise Rent-A-Car",
    "latitude": 36.0980635324,
    "longitude": -115.148062843,
    "stars": 3.5,
    "review_count": 7
  },
  "85575": {
    "name": "Las Vegas Mob Experience",
    "latitude": 36.099039,
    "longitude": -115.17044,
    "stars": 3.5,
    "review_count": 42
  },
  "85709": {
    "name": "Men Of X",
    "latitude": 36.0993459,
    "longitude": -115.167874,
    "stars": 3.0,
    "review_count": 24
  },
  "86361": {
    "name": "Howard Johnson by Wyndham Las Vegas near the Strip",
    "latitude": 36.099519,
    "longitude": -115.165806,
    "stars": 2.0,
    "review_count": 103
  },
  "86549": {
    "name": "Purple Reign - THE Prince Tribute Show",
    "latitude": 36.0990448,
    "longitude": -115.1704519,
    "stars": 4.5,
    "review_count": 264
  },
  "88110": {
    "name": "Chophouse & Brewery",
    "latitude": 36.0858850095,
    "longitude": -115.137501955,
    "stars": 3.0,
    "review_count": 197
  },
  "88112": {
    "name": "Lynn's World Quality Consignment",
    "latitude": 36.0987599068,
    "longitude": -115.119618534,
    "stars": 4.0,
    "review_count": 34
  },
  "88120": {
    "name": "The Donut Bouquet",
    "latitude": 36.0765176,
    "longitude": -115.1533426,
    "stars": 3.5,
    "review_count": 7
  },
  "88121": {
    "name": "Magura's",
    "latitude": 36.0993309,
    "longitude": -115.1285043,
    "stars": 5.0,
    "review_count": 7
  },
  "88247": {
    "name": "Classic Wedding Wear",
    "latitude": 36.0715597,
    "longitude": -115.1201948,
    "stars": 3.0,
    "review_count": 5
  },
  "88433": {
    "name": "McDonald's",
    "latitude": 36.0899643024,
    "longitude": -115.172212422,
    "stars": 2.0,
    "review_count": 43
  },
  "89020": {
    "name": "Gibson's Canine Classroom",
    "latitude": 36.0802868,
    "longitude": -115.1592718,
    "stars": 4.5,
    "review_count": 13
  },
  "89590": {
    "name": "Alamo",
    "latitude": 36.0839998,
    "longitude": -115.1537389,
    "stars": 3.0,
    "review_count": 3
  },
  "89929": {
    "name": "Red Mango",
    "latitude": 36.0807522,
    "longitude": -115.1393012,
    "stars": 4.0,
    "review_count": 17
  },
  "90740": {
    "name": "Glow On the Go",
    "latitude": 36.081754,
    "longitude": -115.137327,
    "stars": 2.5,
    "review_count": 7
  },
  "92728": {
    "name": "Airport Rent A Car",
    "latitude": 36.096837,
    "longitude": -115.147934,
    "stars": 2.0,
    "review_count": 9
  },
  "92729": {
    "name": "Liberace Mansion",
    "latitude": 36.099466,
    "longitude": -115.142178,
    "stars": 4.0,
    "review_count": 3
  },
  "92730": {
    "name": "360 Gourmet Burrito",
    "latitude": 36.0857159758,
    "longitude": -115.153187808,
    "stars": 1.5,
    "review_count": 10
  },
  "92852": {
    "name": "Ascendant Tattoo Studio",
    "latitude": 36.0975709,
    "longitude": -115.1196375,
    "stars": 4.5,
    "review_count": 8
  },
  "93237": {
    "name": "USO Las Vegas",
    "latitude": 36.0839998,
    "longitude": -115.1537389,
    "stars": 4.0,
    "review_count": 23
  },
  "93264": {
    "name": "Gadget Experts iMobile Repair",
    "latitude": 36.0765176,
    "longitude": -115.1533426,
    "stars": 4.5,
    "review_count": 8
  },
  "93265": {
    "name": "TSA Checkpoint Terminal 1 - C",
    "latitude": 36.0839998,
    "longitude": -115.1537389,
    "stars": 1.0,
    "review_count": 4
  },
  "93266": {
    "name": "St. George Shuttle",
    "latitude": 36.0839998,
    "longitude": -115.1537389,
    "stars": 3.5,
    "review_count": 3
  },
  "93356": {
    "name": "The Body Connection",
    "latitude": 36.0765176,
    "longitude": -115.1533426,
    "stars": 4.0,
    "review_count": 8
  },
  "93580": {
    "name": "Copa Airlines",
    "latitude": 36.086307,
    "longitude": -115.135319,
    "stars": 1.0,
    "review_count": 6
  },
  "93699": {
    "name": "Sun Country Heating & Cooling",
    "latitude": 36.0801571473,
    "longitude": -115.1533426,
    "stars": 4.5,
    "review_count": 47
  },
  "93823": {
    "name": "All American Repair Services",
    "latitude": 36.076852,
    "longitude": -115.152222,
    "stars": 3.0,
    "review_count": 9
  },
  "93825": {
    "name": "Nomtrition",
    "latitude": 36.0765176,
    "longitude": -115.1533426,
    "stars": 5.0,
    "review_count": 3
  },
  "94025": {
    "name": "Economy Parking Mccarran Intl Airport",
    "latitude": 36.0964137169,
    "longitude": -115.148338817,
    "stars": 3.5,
    "review_count": 12
  },
  "94311": {
    "name": "Welcome to Las Vegas",
    "latitude": 36.08441,
    "longitude": -115.15034,
    "stars": 4.0,
    "review_count": 3
  },
  "94345": {
    "name": "Red Star Lounge",
    "latitude": 36.084431,
    "longitude": -115.15376,
    "stars": 3.5,
    "review_count": 8
  },
  "94632": {
    "name": "Las Vegas Harley-Davidson",
    "latitude": 36.0826801772,
    "longitude": -115.171526352,
    "stars": 3.5,
    "review_count": 11
  },
  "94937": {
    "name": "Ruby's Diner",
    "latitude": 36.0815129407,
    "longitude": -115.137409962,
    "stars": 2.5,
    "review_count": 191
  },
  "95104": {
    "name": "Wendy's",
    "latitude": 36.0848120876,
    "longitude": -115.151201011,
    "stars": 3.0,
    "review_count": 34
  },
  "95568": {
    "name": "Palm Trees",
    "latitude": 36.0765176,
    "longitude": -115.1533426,
    "stars": 5.0,
    "review_count": 3
  },
  "95607": {
    "name": "Dollar",
    "latitude": 36.0838389,
    "longitude": -115.148385,
    "stars": 1.5,
    "review_count": 78
  },
  "95609": {
    "name": "Gyro Time",
    "latitude": 36.0855002336,
    "longitude": -115.119432251,
    "stars": 3.5,
    "review_count": 72
  },
  "96548": {
    "name": "United Airlines",
    "latitude": 36.085254569,
    "longitude": -115.150781063,
    "stars": 2.0,
    "review_count": 153
  },
  "96742": {
    "name": "Desert Rose Resort",
    "latitude": 36.098268,
    "longitude": -115.1674049,
    "stars": 3.5,
    "review_count": 173
  },
  "96819": {
    "name": "24 hr lockouts",
    "latitude": 36.0765176,
    "longitude": -115.1533426,
    "stars": 1.0,
    "review_count": 3
  },
  "96961": {
    "name": "The Soprano's Last Supper",
    "latitude": 36.0993632,
    "longitude": -115.1709616,
    "stars": 3.0,
    "review_count": 8
  },
  "96964": {
    "name": "Lucky Hue LV",
    "latitude": 36.097733,
    "longitude": -115.146225,
    "stars": 5.0,
    "review_count": 6
  },
  "96965": {
    "name": "Cancun Bar & Grill",
    "latitude": 36.0986321,
    "longitude": -115.1360793,
    "stars": 4.5,
    "review_count": 5
  },
  "97004": {
    "name": "PhotoFM.com Professional Photography",
    "latitude": 36.0765176,
    "longitude": -115.1533426,
    "stars": 5.0,
    "review_count": 13
  },
  "97063": {
    "name": "El Frescos Cocina Mexicana",
    "latitude": 36.0985273,
    "longitude": -115.1484459,
    "stars": 5.0,
    "review_count": 193
  },
  "97342": {
    "name": "Jody Maroni's",
    "latitude": 36.086217,
    "longitude": -115.149533,
    "stars": 1.0,
    "review_count": 5
  },
  "97534": {
    "name": "Carl's Jr.",
    "latitude": 36.084465,
    "longitude": -115.119349,
    "stars": 3.0,
    "review_count": 28
  },
  "97592": {
    "name": "Farmer Boys",
    "latitude": 36.081352,
    "longitude": -115.1192262,
    "stars": 3.0,
    "review_count": 162
  },
  "98057": {
    "name": "Walk In Salon by Robert Cromeans",
    "latitude": 36.087829352,
    "longitude": -115.137682677,
    "stars": 4.5,
    "review_count": 102
  },
  "98360": {
    "name": "Sadiddy world",
    "latitude": 36.0979449,
    "longitude": -115.1198639,
    "stars": 4.5,
    "review_count": 9
  },
  "98361": {
    "name": "US Airways",
    "latitude": 36.089494,
    "longitude": -115.138026,
    "stars": 2.0,
    "review_count": 59
  },
  "98362": {
    "name": "Preferred Homecare",
    "latitude": 36.071885,
    "longitude": -115.146807,
    "stars": 1.5,
    "review_count": 74
  },
  "98364": {
    "name": "The Duty Free Store",
    "latitude": 36.0860926,
    "longitude": -115.1368516,
    "stars": 4.0,
    "review_count": 11
  },
  "98533": {
    "name": "Fantasy Car Rentals",
    "latitude": 36.0984514,
    "longitude": -115.1463295,
    "stars": 4.0,
    "review_count": 4
  },
  "99517": {
    "name": "Vibe Apartments",
    "latitude": 36.0985121,
    "longitude": -115.1377317,
    "stars": 5.0,
    "review_count": 4
  },
  "99518": {
    "name": "Avis Rent A Car",
    "latitude": 36.0765176,
    "longitude": -115.1533426,
    "stars": 2.5,
    "review_count": 72
  },
  "100594": {
    "name": "Wine Amplified",
    "latitude": 36.0948990277,
    "longitude": -115.171532352,
    "stars": 2.5,
    "review_count": 13
  },
  "100622": {
    "name": "The Green Regime",
    "latitude": 36.0838414902,
    "longitude": -115.119733997,
    "stars": 4.5,
    "review_count": 62
  },
  "102951": {
    "name": "Let's Face It Skin Care & Waxing",
    "latitude": 36.0745100877,
    "longitude": -115.124173333,
    "stars": 5.0,
    "review_count": 34
  },
  "103291": {
    "name": "Pet'ographique",
    "latitude": 36.0765176,
    "longitude": -115.1533426,
    "stars": 5.0,
    "review_count": 13
  },
  "104111": {
    "name": "Sierras Colors",
    "latitude": 36.095745,
    "longitude": -115.1677414,
    "stars": 5.0,
    "review_count": 4
  },
  "104213": {
    "name": "Uni Trans",
    "latitude": 36.098467,
    "longitude": -115.148375,
    "stars": 1.0,
    "review_count": 3
  },
  "105033": {
    "name": "Budget Car and Truck Rental",
    "latitude": 36.0946982,
    "longitude": -115.1478901,
    "stars": 1.0,
    "review_count": 6
  },
  "107540": {
    "name": "Jarrett & Raja MAGIC vs MUSIC",
    "latitude": 36.0993459,
    "longitude": -115.167874,
    "stars": 4.0,
    "review_count": 9
  },
  "107854": {
    "name": "Cobiz Coworking",
    "latitude": 36.089494,
    "longitude": -115.138026,
    "stars": 5.0,
    "review_count": 4
  },
  "108206": {
    "name": "2 Scoops of Aloha LV",
    "latitude": 36.0985273,
    "longitude": -115.1484459,
    "stars": 4.0,
    "review_count": 48
  },
  "109085": {
    "name": "Krissy's Hair and Makeup Services",
    "latitude": 36.0765176,
    "longitude": -115.1533426,
    "stars": 5.0,
    "review_count": 20
  },
  "110679": {
    "name": "Robert Irvine's Public House",
    "latitude": 36.0990448,
    "longitude": -115.1704519,
    "stars": 3.5,
    "review_count": 397
  },
  "111044": {
    "name": "Chevron",
    "latitude": 36.0715458565,
    "longitude": -115.128168219,
    "stars": 2.5,
    "review_count": 3
  },
  "111220": {
    "name": "Subway",
    "latitude": 36.0903898131,
    "longitude": -115.172310372,
    "stars": 2.0,
    "review_count": 17
  },
  "111251": {
    "name": "Sign Experts",
    "latitude": 36.0715597,
    "longitude": -115.1201948,
    "stars": 1.0,
    "review_count": 5
  },
  "112531": {
    "name": "Mangano Las Vegas",
    "latitude": 36.09,
    "longitude": -115.15,
    "stars": 5.0,
    "review_count": 4
  },
  "112939": {
    "name": "Optionz Fashion Lounge",
    "latitude": 36.09949,
    "longitude": -115.120338,
    "stars": 5.0,
    "review_count": 3
  },
  "113262": {
    "name": "Shrine of the Most Holy Redeemer",
    "latitude": 36.0966077,
    "longitude": -115.1699255,
    "stars": 4.5,
    "review_count": 26
  },
  "114259": {
    "name": "Johnny McGuire's Deli",
    "latitude": 36.089494,
    "longitude": -115.138026,
    "stars": 3.5,
    "review_count": 76
  },
  "115924": {
    "name": "Brighton Collectibles",
    "latitude": 36.082914,
    "longitude": -115.14838,
    "stars": 3.5,
    "review_count": 9
  },
  "116073": {
    "name": "Worst Show in Vegas",
    "latitude": 36.09935,
    "longitude": -115.167874,
    "stars": 4.5,
    "review_count": 16
  },
  "117409": {
    "name": "Artifact",
    "latitude": 36.089494,
    "longitude": -115.138026,
    "stars": 5.0,
    "review_count": 11
  },
  "117410": {
    "name": "Pussykat Tattoo Parlor",
    "latitude": 36.0992725,
    "longitude": -115.1362126,
    "stars": 4.0,
    "review_count": 61
  },
  "118434": {
    "name": "ILLUSIONS starring Jan Rouven",
    "latitude": 36.0993632,
    "longitude": -115.1709616,
    "stars": 4.0,
    "review_count": 118
  },
  "119350": {
    "name": "Ethel M Chocolates",
    "latitude": 36.0847552385,
    "longitude": -115.151012402,
    "stars": 4.0,
    "review_count": 50
  },
  "119857": {
    "name": "Diamond Inn Motel",
    "latitude": 36.087693,
    "longitude": -115.172234,
    "stars": 2.5,
    "review_count": 13
  },
  "120027": {
    "name": "Sky Beach Club",
    "latitude": 36.0993836753,
    "longitude": -115.169910648,
    "stars": 3.0,
    "review_count": 6
  },
  "120038": {
    "name": "Spa Tropicana",
    "latitude": 36.0990448,
    "longitude": -115.1704519,
    "stars": 2.5,
    "review_count": 6
  },
  "120502": {
    "name": "702 Pools",
    "latitude": 36.09,
    "longitude": -115.15,
    "stars": 2.0,
    "review_count": 9
  },
  "120554": {
    "name": "Purrfect Auto Service",
    "latitude": 36.0965101,
    "longitude": -115.1364328,
    "stars": 1.0,
    "review_count": 3
  },
  "120760": {
    "name": "The Local",
    "latitude": 36.0866317396,
    "longitude": -115.136501826,
    "stars": 3.0,
    "review_count": 8
  },
  "120962": {
    "name": "Las Vegas Fruits & Nuts",
    "latitude": 36.083303,
    "longitude": -115.149511,
    "stars": 4.5,
    "review_count": 6
  },
  "121093": {
    "name": "Chili's",
    "latitude": 36.0810741738,
    "longitude": -115.139355697,
    "stars": 2.5,
    "review_count": 133
  },
  "121795": {
    "name": "Marshall-Rousso",
    "latitude": 36.0839998,
    "longitude": -115.1537389,
    "stars": 3.0,
    "review_count": 3
  },
  "121962": {
    "name": "Starbucks",
    "latitude": 36.0854286,
    "longitude": -115.149927,
    "stars": 2.0,
    "review_count": 67
  },
  "123228": {
    "name": "Budweiser Racing Track Bar & Grill",
    "latitude": 36.085374,
    "longitude": -115.149616,
    "stars": 2.5,
    "review_count": 12
  },
  "123676": {
    "name": "Mattress Firm Inc-Mfi 5429",
    "latitude": 36.0847184,
    "longitude": -115.1188815,
    "stars": 5.0,
    "review_count": 4
  },
  "123677": {
    "name": "Cool and Eclectic",
    "latitude": 36.089493959,
    "longitude": -115.138025992,
    "stars": 4.0,
    "review_count": 6
  },
  "124437": {
    "name": "Sbarro",
    "latitude": 36.0804361207,
    "longitude": -115.146663233,
    "stars": 2.0,
    "review_count": 26
  },
  "124975": {
    "name": "Game Haven",
    "latitude": 36.081786,
    "longitude": -115.119365,
    "stars": 4.0,
    "review_count": 4
  },
  "124977": {
    "name": "Cheetah Wireless Technologies",
    "latitude": 36.0765176,
    "longitude": -115.1533426,
    "stars": 1.0,
    "review_count": 3
  },
  "125479": {
    "name": "South Beach Food Court",
    "latitude": 36.0990448,
    "longitude": -115.1704519,
    "stars": 2.5,
    "review_count": 25
  },
  "126453": {
    "name": "KosherSitters",
    "latitude": 36.0839998,
    "longitude": -115.1537389,
    "stars": 5.0,
    "review_count": 4
  },
  "126985": {
    "name": "Americas Best Value Inn",
    "latitude": 36.099549,
    "longitude": -115.1652331,
    "stars": 2.0,
    "review_count": 122
  },
  "129826": {
    "name": "SFR Investments Pool",
    "latitude": 36.0983856,
    "longitude": -115.148285,
    "stars": 3.0,
    "review_count": 5
  },
  "130962": {
    "name": "Leonard's Wide Shoes",
    "latitude": 36.0903268,
    "longitude": -115.1721201,
    "stars": 3.0,
    "review_count": 5
  },
  "131441": {
    "name": "Yesterday - A Tribute to the Beatles",
    "latitude": 36.0990448,
    "longitude": -115.1704519,
    "stars": 2.5,
    "review_count": 3
  },
  "131866": {
    "name": "Jersey Mike's Subs",
    "latitude": 36.0819648618,
    "longitude": -115.14772249,
    "stars": 3.5,
    "review_count": 40
  },
  "132253": {
    "name": "Bacio Italian Cuisine",
    "latitude": 36.0990448,
    "longitude": -115.1704519,
    "stars": 3.5,
    "review_count": 144
  },
  "132782": {
    "name": "Cafe Nikki",
    "latitude": 36.099039,
    "longitude": -115.17044,
    "stars": 2.0,
    "review_count": 3
  },
  "134411": {
    "name": "A Garden Floral",
    "latitude": 36.0993826577,
    "longitude": -115.171016136,
    "stars": 5.0,
    "review_count": 53
  },
  "134676": {
    "name": "Wolfgang Puck Express",
    "latitude": 36.0823913954,
    "longitude": -115.136106058,
    "stars": 2.5,
    "review_count": 84
  },
  "135462": {
    "name": "Little Church of the West",
    "latitude": 36.0861,
    "longitude": -115.172,
    "stars": 4.0,
    "review_count": 118
  },
  "135477": {
    "name": "Beach Caf\u00e9",
    "latitude": 36.0990077275,
    "longitude": -115.171410876,
    "stars": 3.0,
    "review_count": 207
  },
  "136011": {
    "name": "Nevada Partnership For Homeless Youth",
    "latitude": 36.0996022,
    "longitude": -115.1428326,
    "stars": 5.0,
    "review_count": 4
  },
  "136325": {
    "name": "Prickly Pear Cafe",
    "latitude": 36.086171,
    "longitude": -115.136986,
    "stars": 2.0,
    "review_count": 4
  },
  "136704": {
    "name": "All Car Glass",
    "latitude": 36.09,
    "longitude": -115.15,
    "stars": 5.0,
    "review_count": 7
  },
  "137230": {
    "name": "Brookstone",
    "latitude": 36.082991,
    "longitude": -115.148221,
    "stars": 3.5,
    "review_count": 3
  },
  "137232": {
    "name": "iCandy",
    "latitude": 36.0849929,
    "longitude": -115.1511348,
    "stars": 2.5,
    "review_count": 3
  },
  "137246": {
    "name": "Carl's Jr",
    "latitude": 36.085488,
    "longitude": -115.151185,
    "stars": 2.5,
    "review_count": 15
  },
  "138096": {
    "name": "Laugh Factory",
    "latitude": 36.0990448,
    "longitude": -115.1704519,
    "stars": 3.5,
    "review_count": 145
  },
  "138357": {
    "name": "Scrappin' Time",
    "latitude": 36.0816107,
    "longitude": -115.1219596,
    "stars": 3.0,
    "review_count": 6
  },
  "138547": {
    "name": "Desert Oasis Motel",
    "latitude": 36.0914271,
    "longitude": -115.1719172,
    "stars": 2.5,
    "review_count": 3
  },
  "138785": {
    "name": "Siegfried & Roy Park",
    "latitude": 36.089498294,
    "longitude": -115.139191747,
    "stars": 4.0,
    "review_count": 6
  },
  "139185": {
    "name": "Cherry Boom Boom",
    "latitude": 36.0990311,
    "longitude": -115.1708014,
    "stars": 4.5,
    "review_count": 8
  },
  "139960": {
    "name": "Amazing Face Painting",
    "latitude": 36.09,
    "longitude": -115.15,
    "stars": 4.5,
    "review_count": 22
  },
  "139966": {
    "name": "7-Eleven",
    "latitude": 36.0967547067,
    "longitude": -115.119443983,
    "stars": 4.0,
    "review_count": 4
  },
  "140200": {
    "name": "Track Lounge",
    "latitude": 36.0858828,
    "longitude": -115.149411,
    "stars": 3.0,
    "review_count": 3
  },
  "140736": {
    "name": "Lucky Streak at LAS",
    "latitude": 36.0839998,
    "longitude": -115.1537389,
    "stars": 3.0,
    "review_count": 43
  },
  "141333": {
    "name": "Presidents Club",
    "latitude": 36.0853842953,
    "longitude": -115.150194168,
    "stars": 4.0,
    "review_count": 9
  },
  "141367": {
    "name": "U Save Car Rentals",
    "latitude": 36.098937,
    "longitude": -115.148759,
    "stars": 1.5,
    "review_count": 7
  },
  "141548": {
    "name": "Licklider's Deli & Grill",
    "latitude": 36.098467,
    "longitude": -115.148375,
    "stars": 5.0,
    "review_count": 4
  },
  "141692": {
    "name": "Fresh Attractions World Market Flavors",
    "latitude": 36.0797665,
    "longitude": -115.127809,
    "stars": 1.0,
    "review_count": 4
  },
  "142068": {
    "name": "The Coffee Bean & Tea Leaf",
    "latitude": 36.0809050915,
    "longitude": -115.146765299,
    "stars": 3.0,
    "review_count": 32
  },
  "142175": {
    "name": "Makeup by Hafsa",
    "latitude": 36.0830589622,
    "longitude": -115.151483783,
    "stars": 5.0,
    "review_count": 5
  },
  "142525": {
    "name": "A Maid for you",
    "latitude": 36.087781,
    "longitude": -115.119141,
    "stars": 1.5,
    "review_count": 14
  },
  "142526": {
    "name": "Carvel Ice Cream",
    "latitude": 36.0858828,
    "longitude": -115.149411,
    "stars": 3.5,
    "review_count": 4
  },
  "143150": {
    "name": "VIP HookUp",
    "latitude": 36.0765176,
    "longitude": -115.1533426,
    "stars": 3.0,
    "review_count": 3
  },
  "143520": {
    "name": "Sky Technologies",
    "latitude": 36.09949,
    "longitude": -115.120338,
    "stars": 2.5,
    "review_count": 3
  },
  "143631": {
    "name": "Riverbend Village Apartments",
    "latitude": 36.086719567,
    "longitude": -115.138026,
    "stars": 1.5,
    "review_count": 11
  },
  "143833": {
    "name": "Pick N Puff",
    "latitude": 36.0983856,
    "longitude": -115.148285,
    "stars": 4.5,
    "review_count": 7
  },
  "143895": {
    "name": "Pop's Pizza",
    "latitude": 36.0901056901,
    "longitude": -115.172292057,
    "stars": 3.5,
    "review_count": 19
  },
  "144196": {
    "name": "Nevada Clean Up",
    "latitude": 36.0765176,
    "longitude": -115.1533426,
    "stars": 3.5,
    "review_count": 4
  },
  "144630": {
    "name": "Enterprise Rent-A-Car",
    "latitude": 36.098446,
    "longitude": -115.146826,
    "stars": 3.0,
    "review_count": 9
  },
  "144873": {
    "name": "McCarran International Airport",
    "latitude": 36.0850163303,
    "longitude": -115.151009469,
    "stars": 3.5,
    "review_count": 3481
  },
  "145038": {
    "name": "Chiamaka Food",
    "latitude": 36.0987437,
    "longitude": -115.1360224,
    "stars": 3.5,
    "review_count": 6
  },
  "145198": {
    "name": "JFK Exhibit",
    "latitude": 36.0993783,
    "longitude": -115.1710285,
    "stars": 1.0,
    "review_count": 5
  },
  "146334": {
    "name": "Delta Air Lines",
    "latitude": 36.0839998,
    "longitude": -115.1537389,
    "stars": 2.0,
    "review_count": 141
  },
  "146871": {
    "name": "Barney's Lounge",
    "latitude": 36.0831401986,
    "longitude": -115.148800501,
    "stars": 2.5,
    "review_count": 14
  },
  "147543": {
    "name": "Ink Masters Las Vegas",
    "latitude": 36.0872287071,
    "longitude": -115.119303946,
    "stars": 4.5,
    "review_count": 28
  },
  "147633": {
    "name": "EQ3",
    "latitude": 36.089494,
    "longitude": -115.138026,
    "stars": 2.5,
    "review_count": 3
  },
  "147725": {
    "name": "Burger King",
    "latitude": 36.0812917584,
    "longitude": -115.159721375,
    "stars": 2.0,
    "review_count": 16
  },
  "147838": {
    "name": "A Simple Life",
    "latitude": 36.0977824,
    "longitude": -115.1198557,
    "stars": 4.5,
    "review_count": 3
  },
  "147840": {
    "name": "US Post Office",
    "latitude": 36.0996207,
    "longitude": -115.1465238,
    "stars": 2.5,
    "review_count": 23
  },
  "148008": {
    "name": "Las Mkt",
    "latitude": 36.08044,
    "longitude": -115.146097,
    "stars": 2.5,
    "review_count": 44
  },
  "148327": {
    "name": "AT&T",
    "latitude": 36.0819807378,
    "longitude": -115.119610275,
    "stars": 2.0,
    "review_count": 6
  },
  "148585": {
    "name": "3Nuts",
    "latitude": 36.090869,
    "longitude": -115.1192015,
    "stars": 5.0,
    "review_count": 35
  },
  "148689": {
    "name": "Southwest Gas Corporation",
    "latitude": 36.09,
    "longitude": -115.15,
    "stars": 1.5,
    "review_count": 51
  },
  "148747": {
    "name": "The Layover Bar",
    "latitude": 36.089962,
    "longitude": -115.149901,
    "stars": 3.0,
    "review_count": 11
  },
  "148839": {
    "name": "Virgin America",
    "latitude": 36.0849235364,
    "longitude": -115.151091885,
    "stars": 3.5,
    "review_count": 146
  },
  "149011": {
    "name": "Optic Gallery Eastern",
    "latitude": 36.0819202,
    "longitude": -115.1196073,
    "stars": 4.5,
    "review_count": 48
  },
  "149627": {
    "name": "Platinum Cuts Barber Shop",
    "latitude": 36.0901229,
    "longitude": -115.119259,
    "stars": 3.5,
    "review_count": 8
  },
  "150616": {
    "name": "Jameson Florence, MD",
    "latitude": 36.0936345,
    "longitude": -115.1192942,
    "stars": 3.5,
    "review_count": 8
  },
  "150642": {
    "name": "The Coffee Bean & Tea Leaf",
    "latitude": 36.0847396851,
    "longitude": -115.151077271,
    "stars": 3.5,
    "review_count": 31
  },
  "151681": {
    "name": "Mb's Horse and Carriage Co",
    "latitude": 36.0839998,
    "longitude": -115.1537389,
    "stars": 5.0,
    "review_count": 3
  },
  "151683": {
    "name": "Pearl Factory",
    "latitude": 36.089494,
    "longitude": -115.138026,
    "stars": 4.5,
    "review_count": 3
  },
  "151956": {
    "name": "PGA Store",
    "latitude": 36.0854286,
    "longitude": -115.149927,
    "stars": 2.0,
    "review_count": 4
  },
  "151957": {
    "name": "Carvel Ice Cream",
    "latitude": 36.085343,
    "longitude": -115.11937,
    "stars": 2.0,
    "review_count": 5
  },
  "152160": {
    "name": "Baja Fresh",
    "latitude": 36.0854286,
    "longitude": -115.149927,
    "stars": 2.5,
    "review_count": 46
  },
  "152593": {
    "name": "Mira Vakil, MD",
    "latitude": 36.0943509,
    "longitude": -115.1192942,
    "stars": 3.0,
    "review_count": 9
  },
  "154554": {
    "name": "Motel 8",
    "latitude": 36.0915346318,
    "longitude": -115.171773983,
    "stars": 2.0,
    "review_count": 10
  },
  "154631": {
    "name": "Home Turf",
    "latitude": 36.0854286,
    "longitude": -115.149927,
    "stars": 1.5,
    "review_count": 16
  },
  "154634": {
    "name": "Sammy's Woodfired Pizza And Grill",
    "latitude": 36.0804736858,
    "longitude": -115.135585152,
    "stars": 2.5,
    "review_count": 145
  },
  "155437": {
    "name": "ShowTickets.com",
    "latitude": 36.0765176,
    "longitude": -115.1533426,
    "stars": 1.5,
    "review_count": 21
  },
  "156717": {
    "name": "Shanghai Lilly",
    "latitude": 36.089494,
    "longitude": -115.138026,
    "stars": 3.0,
    "review_count": 36
  },
  "158220": {
    "name": "Taxi Service",
    "latitude": 36.0839998,
    "longitude": -115.1537389,
    "stars": 4.5,
    "review_count": 7
  },
  "158835": {
    "name": "Sunkissed Bottoms",
    "latitude": 36.0831769387,
    "longitude": -115.156089182,
    "stars": 5.0,
    "review_count": 43
  },
  "159058": {
    "name": "Best Way Auto & Truck Rentals",
    "latitude": 36.0985273,
    "longitude": -115.1484459,
    "stars": 3.5,
    "review_count": 6
  },
  "161442": {
    "name": "Carl's Jr.",
    "latitude": 36.0859750163,
    "longitude": -115.1356562,
    "stars": 2.5,
    "review_count": 8
  },
  "163276": {
    "name": "HOT 97.5 KVEG",
    "latitude": 36.0902211,
    "longitude": -115.1720703,
    "stars": 2.5,
    "review_count": 6
  },
  "164251": {
    "name": "Winchells Donut House",
    "latitude": 36.091697,
    "longitude": -115.171958,
    "stars": 3.0,
    "review_count": 7
  },
  "164316": {
    "name": "Hudson News",
    "latitude": 36.0842503,
    "longitude": -115.1508455,
    "stars": 2.5,
    "review_count": 39
  },
  "164847": {
    "name": "Domain Listings",
    "latitude": 36.0997677,
    "longitude": -115.1459758,
    "stars": 1.0,
    "review_count": 11
  },
  "168618": {
    "name": "Subway",
    "latitude": 36.0854286,
    "longitude": -115.149927,
    "stars": 1.5,
    "review_count": 13
  },
  "171230": {
    "name": "Will Smith Hair Studio",
    "latitude": 36.085564,
    "longitude": -115.119534,
    "stars": 3.5,
    "review_count": 3
  },
  "172276": {
    "name": "Pellegrino Pizza & Deli",
    "latitude": 36.099039,
    "longitude": -115.17044,
    "stars": 3.0,
    "review_count": 8
  },
  "172730": {
    "name": "Corcoran's Irish Pub - McCarran Airport",
    "latitude": 36.0839998,
    "longitude": -115.1537389,
    "stars": 2.0,
    "review_count": 16
  },
  "173062": {
    "name": "Panda Express",
    "latitude": 36.090457,
    "longitude": -115.172227,
    "stars": 3.5,
    "review_count": 28
  },
  "174694": {
    "name": "Band of Magicians",
    "latitude": 36.0996295607,
    "longitude": -115.171394348,
    "stars": 4.0,
    "review_count": 14
  },
  "174835": {
    "name": "Biscayne Steak, Sea & Wine",
    "latitude": 36.0990311,
    "longitude": -115.1708014,
    "stars": 4.0,
    "review_count": 140
  },
  "174878": {
    "name": "South Beach Cafe & Deli",
    "latitude": 36.09906,
    "longitude": -115.170452,
    "stars": 2.5,
    "review_count": 14
  },
  "174893": {
    "name": "Age of Chivalry - Renaissance Festival",
    "latitude": 36.0844511343,
    "longitude": -115.123734037,
    "stars": 3.5,
    "review_count": 31
  },
  "176441": {
    "name": "Vegas Repair",
    "latitude": 36.089494,
    "longitude": -115.138026,
    "stars": 4.5,
    "review_count": 3
  },
  "176650": {
    "name": "Tropicana Las Vegas",
    "latitude": 36.099636,
    "longitude": -115.17136,
    "stars": 3.0,
    "review_count": 1445
  },
  "178288": {
    "name": "The Naked Spoon",
    "latitude": 36.0990311,
    "longitude": -115.1708014,
    "stars": 3.0,
    "review_count": 8
  },
  "178792": {
    "name": "Avis Rent A Car McCarran Airport",
    "latitude": 36.0940047,
    "longitude": -115.1502508,
    "stars": 2.0,
    "review_count": 143
  },
  "178798": {
    "name": "Red Lotus Asian Kitchen",
    "latitude": 36.0990448,
    "longitude": -115.1704519,
    "stars": 4.0,
    "review_count": 20
  },
  "180068": {
    "name": "Chill'm Bar Mixed Drinks and Frozen Cocktails",
    "latitude": 36.099649,
    "longitude": -115.171361,
    "stars": 4.5,
    "review_count": 6
  },
  "180587": {
    "name": "Starbucks",
    "latitude": 36.0990448,
    "longitude": -115.1704519,
    "stars": 2.5,
    "review_count": 15
  },
  "180647": {
    "name": "Rocco's NY Pizza & Pasta",
    "latitude": 36.0900950023,
    "longitude": -115.17218164,
    "stars": 4.5,
    "review_count": 43
  },
  "180683": {
    "name": "David Goldrake",
    "latitude": 36.0995976979,
    "longitude": -115.171715692,
    "stars": 4.5,
    "review_count": 82
  },
  "182736": {
    "name": "24 Hour Vegas Hotel Doctor",
    "latitude": 36.0765176,
    "longitude": -115.1533426,
    "stars": 4.5,
    "review_count": 33
  },
  "182758": {
    "name": "South Beach Marketplace",
    "latitude": 36.0990448,
    "longitude": -115.1704519,
    "stars": 2.5,
    "review_count": 3
  },
  "183486": {
    "name": "Cafe Mayakovsky",
    "latitude": 36.0993309,
    "longitude": -115.1285043,
    "stars": 4.5,
    "review_count": 248
  },
  "183571": {
    "name": "Mob Attraction",
    "latitude": 36.097808,
    "longitude": -115.171308,
    "stars": 4.0,
    "review_count": 70
  },
  "183723": {
    "name": "Peter Piper Pizza",
    "latitude": 36.0796727306,
    "longitude": -115.119511373,
    "stars": 3.5,
    "review_count": 44
  },
  "184872": {
    "name": "McCarran International Airport Terminal 1 - B",
    "latitude": 36.0827793697,
    "longitude": -115.152692949,
    "stars": 3.0,
    "review_count": 6
  },
  "185126": {
    "name": "Oakville Steakhouse",
    "latitude": 36.0990448,
    "longitude": -115.1704519,
    "stars": 3.5,
    "review_count": 40
  },
  "185325": {
    "name": "Savor The Buffet",
    "latitude": 36.0990448,
    "longitude": -115.1704519,
    "stars": 2.5,
    "review_count": 40
  },
  "185836": {
    "name": "Sideswipe",
    "latitude": 36.0990311,
    "longitude": -115.1708014,
    "stars": 3.5,
    "review_count": 3
  },
  "186430": {
    "name": "The Comedy Stop",
    "latitude": 36.0990448,
    "longitude": -115.1704519,
    "stars": 4.0,
    "review_count": 11
  },
  "187024": {
    "name": "Liquor Outlet",
    "latitude": 36.09022461,
    "longitude": -115.172292899,
    "stars": 3.0,
    "review_count": 15
  },
  "187666": {
    "name": "Vivint Smart Home",
    "latitude": 36.0715813,
    "longitude": -115.1410945,
    "stars": 2.0,
    "review_count": 78
  }
}